{
  "source": "HDX/OCHA COD-AB Uganda administrative boundaries (uga_admin_boundaries.gdb)",
  "sourceUrl": "https://data.humdata.org/dataset/6d6d1495-196b-49d0-86b9-dc9022cde8e7",
  "datasetId": "6d6d1495-196b-49d0-86b9-dc9022cde8e7",
  "resourceId": "ca93a625-4749-4bb0-a6c4-7eec58c2ca84",
  "sourceLastModified": "2026-01-26T16:27:55.500130",
  "crs": "EPSG:4326",
  "levels": {
    "country": 1,
    "region": 4,
    "district": 135,
    "county": 208,
    "subCounty": 1520,
    "parish": 0
  },
  "parishesPresent": false,
  "subRegionsPresent": false,
  "country": {
    "name": "Uganda",
    "iso2": "UG",
    "iso3": "UGA",
    "pcode": "UG",
    "centroidLat": 1.374248,
    "centroidLng": 32.724652
  },
  "regions": [
    {
      "name": "Central",
      "pcode": "UG1",
      "parentPcode": "UG",
      "parentName": "Uganda",
      "centroidLat": 0.335833,
      "centroidLng": 32.219208,
      "areaSqKm": 62656.316869
    },
    {
      "name": "Eastern",
      "pcode": "UG2",
      "parentPcode": "UG",
      "parentName": "Uganda",
      "centroidLat": 0.709125,
      "centroidLng": 33.681657,
      "areaSqKm": 38214.041629
    },
    {
      "name": "Northern",
      "pcode": "UG3",
      "parentPcode": "UG",
      "parentName": "Uganda",
      "centroidLat": 2.797733,
      "centroidLng": 32.821667,
      "areaSqKm": 85407.087529
    },
    {
      "name": "Western",
      "pcode": "UG4",
      "parentPcode": "UG",
      "parentName": "Uganda",
      "centroidLat": 0.443749,
      "centroidLng": 30.525771,
      "areaSqKm": 55234.852489
    }
  ],
  "districts": [
    {
      "name": "Buikwe",
      "pcode": "UG1001",
      "parentPcode": "UG1",
      "parentName": "Central",
      "centroidLat": 0.301637,
      "centroidLng": 33.038753,
      "areaSqKm": 1453.196756
    },
    {
      "name": "Bukomansimbi",
      "pcode": "UG1002",
      "parentPcode": "UG1",
      "parentName": "Central",
      "centroidLat": -0.128473,
      "centroidLng": 31.623712,
      "areaSqKm": 599.837286
    },
    {
      "name": "Butambala",
      "pcode": "UG1003",
      "parentPcode": "UG1",
      "parentName": "Central",
      "centroidLat": 0.161658,
      "centroidLng": 32.136032,
      "areaSqKm": 405.601359
    },
    {
      "name": "Buvuma",
      "pcode": "UG1004",
      "parentPcode": "UG1",
      "parentName": "Central",
      "centroidLat": -0.346607,
      "centroidLng": 33.198553,
      "areaSqKm": 9619.551867
    },
    {
      "name": "Gomba",
      "pcode": "UG1005",
      "parentPcode": "UG1",
      "parentName": "Central",
      "centroidLat": 0.202704,
      "centroidLng": 31.737435,
      "areaSqKm": 1670.567816
    },
    {
      "name": "Kalangala",
      "pcode": "UG1006",
      "parentPcode": "UG1",
      "parentName": "Central",
      "centroidLat": -0.571871,
      "centroidLng": 32.438102,
      "areaSqKm": 9051.207054
    },
    {
      "name": "Kalungu",
      "pcode": "UG1007",
      "parentPcode": "UG1",
      "parentName": "Central",
      "centroidLat": -0.099728,
      "centroidLng": 31.81462,
      "areaSqKm": 837.185592
    },
    {
      "name": "Kampala",
      "pcode": "UG1008",
      "parentPcode": "UG1",
      "parentName": "Central",
      "centroidLat": 0.310067,
      "centroidLng": 32.586901,
      "areaSqKm": 195.285766
    },
    {
      "name": "Kassanda",
      "pcode": "UG1009",
      "parentPcode": "UG1",
      "parentName": "Central",
      "centroidLat": 0.530584,
      "centroidLng": 31.762909,
      "areaSqKm": 1918.65861
    },
    {
      "name": "Kayunga",
      "pcode": "UG1010",
      "parentPcode": "UG1",
      "parentName": "Central",
      "centroidLat": 0.989765,
      "centroidLng": 32.862291,
      "areaSqKm": 1779.014838
    },
    {
      "name": "Kiboga",
      "pcode": "UG1011",
      "parentPcode": "UG1",
      "parentName": "Central",
      "centroidLat": 0.854898,
      "centroidLng": 31.929349,
      "areaSqKm": 1573.937674
    },
    {
      "name": "Kyankwanzi",
      "pcode": "UG1012",
      "parentPcode": "UG1",
      "parentName": "Central",
      "centroidLat": 1.090648,
      "centroidLng": 31.682118,
      "areaSqKm": 2464.011815
    },
    {
      "name": "Kyotera",
      "pcode": "UG1013",
      "parentPcode": "UG1",
      "parentName": "Central",
      "centroidLat": -0.716824,
      "centroidLng": 31.620666,
      "areaSqKm": 2448.624154
    },
    {
      "name": "Luwero",
      "pcode": "UG1014",
      "parentPcode": "UG1",
      "parentName": "Central",
      "centroidLat": 0.845691,
      "centroidLng": 32.602936,
      "areaSqKm": 2217.622975
    },
    {
      "name": "Lwengo",
      "pcode": "UG1015",
      "parentPcode": "UG1",
      "parentName": "Central",
      "centroidLat": -0.446941,
      "centroidLng": 31.399814,
      "areaSqKm": 1024.388181
    },
    {
      "name": "Lyantonde",
      "pcode": "UG1016",
      "parentPcode": "UG1",
      "parentName": "Central",
      "centroidLat": -0.262331,
      "centroidLng": 31.184368,
      "areaSqKm": 865.97157
    },
    {
      "name": "Masaka",
      "pcode": "UG1017",
      "parentPcode": "UG1",
      "parentName": "Central",
      "centroidLat": -0.486166,
      "centroidLng": 31.832509,
      "areaSqKm": 2198.243491
    },
    {
      "name": "Mityana",
      "pcode": "UG1018",
      "parentPcode": "UG1",
      "parentName": "Central",
      "centroidLat": 0.453283,
      "centroidLng": 32.077582,
      "areaSqKm": 1583.385699
    },
    {
      "name": "Mpigi",
      "pcode": "UG1019",
      "parentPcode": "UG1",
      "parentName": "Central",
      "centroidLat": 0.126145,
      "centroidLng": 32.254266,
      "areaSqKm": 1525.155912
    },
    {
      "name": "Mubende",
      "pcode": "UG1020",
      "parentPcode": "UG1",
      "parentName": "Central",
      "centroidLat": 0.514,
      "centroidLng": 31.41147,
      "areaSqKm": 2711.408638
    },
    {
      "name": "Mukono",
      "pcode": "UG1021",
      "parentPcode": "UG1",
      "parentName": "Central",
      "centroidLat": 0.351234,
      "centroidLng": 32.774864,
      "areaSqKm": 2783.893831
    },
    {
      "name": "Nakaseke",
      "pcode": "UG1022",
      "parentPcode": "UG1",
      "parentName": "Central",
      "centroidLat": 1.000198,
      "centroidLng": 32.176613,
      "areaSqKm": 3477.476957
    },
    {
      "name": "Nakasongola",
      "pcode": "UG1023",
      "parentPcode": "UG1",
      "parentName": "Central",
      "centroidLat": 1.315739,
      "centroidLng": 32.4908,
      "areaSqKm": 3511.046722
    },
    {
      "name": "Rakai",
      "pcode": "UG1024",
      "parentPcode": "UG1",
      "parentName": "Central",
      "centroidLat": -0.727322,
      "centroidLng": 31.338911,
      "areaSqKm": 1591.744543
    },
    {
      "name": "Ssembabule",
      "pcode": "UG1025",
      "parentPcode": "UG1",
      "parentName": "Central",
      "centroidLat": -0.055279,
      "centroidLng": 31.37413,
      "areaSqKm": 2340.432198
    },
    {
      "name": "Wakiso",
      "pcode": "UG1026",
      "parentPcode": "UG1",
      "parentName": "Central",
      "centroidLat": 0.215671,
      "centroidLng": 32.513728,
      "areaSqKm": 2808.865563
    },
    {
      "name": "Amuria",
      "pcode": "UG2027",
      "parentPcode": "UG2",
      "parentName": "Eastern",
      "centroidLat": 1.980771,
      "centroidLng": 33.6582,
      "areaSqKm": 1382.496593
    },
    {
      "name": "Budaka",
      "pcode": "UG2028",
      "parentPcode": "UG2",
      "parentName": "Eastern",
      "centroidLat": 1.064287,
      "centroidLng": 34.005085,
      "areaSqKm": 411.049268
    },
    {
      "name": "Bududa",
      "pcode": "UG2029",
      "parentPcode": "UG2",
      "parentName": "Eastern",
      "centroidLat": 1.0262,
      "centroidLng": 34.390654,
      "areaSqKm": 317.414729
    },
    {
      "name": "Bugiri",
      "pcode": "UG2030",
      "parentPcode": "UG2",
      "parentName": "Eastern",
      "centroidLat": 0.518767,
      "centroidLng": 33.773168,
      "areaSqKm": 1053.658928
    },
    {
      "name": "Bugweri",
      "pcode": "UG2031",
      "parentPcode": "UG2",
      "parentName": "Eastern",
      "centroidLat": 0.622056,
      "centroidLng": 33.615743,
      "areaSqKm": 379.083148
    },
    {
      "name": "Bukedea",
      "pcode": "UG2032",
      "parentPcode": "UG2",
      "parentName": "Eastern",
      "centroidLat": 1.369328,
      "centroidLng": 34.142039,
      "areaSqKm": 1050.102188
    },
    {
      "name": "Bukwo",
      "pcode": "UG2033",
      "parentPcode": "UG2",
      "parentName": "Eastern",
      "centroidLat": 1.269617,
      "centroidLng": 34.69805,
      "areaSqKm": 560.090446
    },
    {
      "name": "Bulambuli",
      "pcode": "UG2034",
      "parentPcode": "UG2",
      "parentName": "Eastern",
      "centroidLat": 1.348458,
      "centroidLng": 34.278657,
      "areaSqKm": 693.770563
    },
    {
      "name": "Busia",
      "pcode": "UG2035",
      "parentPcode": "UG2",
      "parentName": "Eastern",
      "centroidLat": 0.391207,
      "centroidLng": 34.015913,
      "areaSqKm": 762.289483
    },
    {
      "name": "Butaleja",
      "pcode": "UG2036",
      "parentPcode": "UG2",
      "parentName": "Eastern",
      "centroidLat": 0.865798,
      "centroidLng": 33.885074,
      "areaSqKm": 654.68584
    },
    {
      "name": "Butebo",
      "pcode": "UG2037",
      "parentPcode": "UG2",
      "parentName": "Eastern",
      "centroidLat": 1.171709,
      "centroidLng": 34.059641,
      "areaSqKm": 237.929916
    },
    {
      "name": "Buyende",
      "pcode": "UG2038",
      "parentPcode": "UG2",
      "parentName": "Eastern",
      "centroidLat": 1.232795,
      "centroidLng": 33.176481,
      "areaSqKm": 1845.203102
    },
    {
      "name": "Iganga",
      "pcode": "UG2039",
      "parentPcode": "UG2",
      "parentName": "Eastern",
      "centroidLat": 0.722271,
      "centroidLng": 33.501585,
      "areaSqKm": 638.568573
    },
    {
      "name": "Jinja",
      "pcode": "UG2040",
      "parentPcode": "UG2",
      "parentName": "Eastern",
      "centroidLat": 0.543607,
      "centroidLng": 33.228754,
      "areaSqKm": 724.429658
    },
    {
      "name": "Kaberamaido",
      "pcode": "UG2041",
      "parentPcode": "UG2",
      "parentName": "Eastern",
      "centroidLat": 1.68527,
      "centroidLng": 33.117162,
      "areaSqKm": 887.469963
    },
    {
      "name": "Kalaki",
      "pcode": "UG2042",
      "parentPcode": "UG2",
      "parentName": "Eastern",
      "centroidLat": 1.829564,
      "centroidLng": 33.356453,
      "areaSqKm": 737.114856
    },
    {
      "name": "Kaliro",
      "pcode": "UG2043",
      "parentPcode": "UG2",
      "parentName": "Eastern",
      "centroidLat": 1.079841,
      "centroidLng": 33.482192,
      "areaSqKm": 869.871896
    },
    {
      "name": "Kamuli",
      "pcode": "UG2044",
      "parentPcode": "UG2",
      "parentName": "Eastern",
      "centroidLat": 0.939846,
      "centroidLng": 33.127864,
      "areaSqKm": 1517.346702
    },
    {
      "name": "Kapchorwa",
      "pcode": "UG2045",
      "parentPcode": "UG2",
      "parentName": "Eastern",
      "centroidLat": 1.328326,
      "centroidLng": 34.407022,
      "areaSqKm": 381.660079
    },
    {
      "name": "Kapelebyong",
      "pcode": "UG2046",
      "parentPcode": "UG2",
      "parentName": "Eastern",
      "centroidLat": 2.195319,
      "centroidLng": 33.777359,
      "areaSqKm": 1201.600657
    },
    {
      "name": "Katakwi",
      "pcode": "UG2047",
      "parentPcode": "UG2",
      "parentName": "Eastern",
      "centroidLat": 1.97061,
      "centroidLng": 34.057504,
      "areaSqKm": 2429.032437
    },
    {
      "name": "Kibuku",
      "pcode": "UG2048",
      "parentPcode": "UG2",
      "parentName": "Eastern",
      "centroidLat": 1.055452,
      "centroidLng": 33.805679,
      "areaSqKm": 489.119531
    },
    {
      "name": "Kumi",
      "pcode": "UG2049",
      "parentPcode": "UG2",
      "parentName": "Eastern",
      "centroidLat": 1.455605,
      "centroidLng": 33.92505,
      "areaSqKm": 1074.620507
    },
    {
      "name": "Kween",
      "pcode": "UG2050",
      "parentPcode": "UG2",
      "parentName": "Eastern",
      "centroidLat": 1.350733,
      "centroidLng": 34.560994,
      "areaSqKm": 789.584038
    },
    {
      "name": "Luuka",
      "pcode": "UG2051",
      "parentPcode": "UG2",
      "parentName": "Eastern",
      "centroidLat": 0.818417,
      "centroidLng": 33.327621,
      "areaSqKm": 649.674294
    },
    {
      "name": "Manafwa",
      "pcode": "UG2052",
      "parentPcode": "UG2",
      "parentName": "Eastern",
      "centroidLat": 0.882602,
      "centroidLng": 34.269787,
      "areaSqKm": 237.669426
    },
    {
      "name": "Mayuge",
      "pcode": "UG2053",
      "parentPcode": "UG2",
      "parentName": "Eastern",
      "centroidLat": -0.19313,
      "centroidLng": 33.590446,
      "areaSqKm": 3382.766526
    },
    {
      "name": "Mbale",
      "pcode": "UG2054",
      "parentPcode": "UG2",
      "parentName": "Eastern",
      "centroidLat": 1.001917,
      "centroidLng": 34.19697,
      "areaSqKm": 518.004683
    },
    {
      "name": "Namayingo",
      "pcode": "UG2055",
      "parentPcode": "UG2",
      "parentName": "Eastern",
      "centroidLat": -0.269926,
      "centroidLng": 33.813673,
      "areaSqKm": 4667.687612
    },
    {
      "name": "Namisindwa",
      "pcode": "UG2056",
      "parentPcode": "UG2",
      "parentName": "Eastern",
      "centroidLat": 0.863577,
      "centroidLng": 34.383813,
      "areaSqKm": 299.670181
    },
    {
      "name": "Namutumba",
      "pcode": "UG2057",
      "parentPcode": "UG2",
      "parentName": "Eastern",
      "centroidLat": 0.886814,
      "centroidLng": 33.666402,
      "areaSqKm": 814.553706
    },
    {
      "name": "Ngora",
      "pcode": "UG2058",
      "parentPcode": "UG2",
      "parentName": "Eastern",
      "centroidLat": 1.496159,
      "centroidLng": 33.773679,
      "areaSqKm": 721.329562
    },
    {
      "name": "Pallisa",
      "pcode": "UG2059",
      "parentPcode": "UG2",
      "parentName": "Eastern",
      "centroidLat": 1.217492,
      "centroidLng": 33.691294,
      "areaSqKm": 859.250818
    },
    {
      "name": "Serere",
      "pcode": "UG2060",
      "parentPcode": "UG2",
      "parentName": "Eastern",
      "centroidLat": 1.492019,
      "centroidLng": 33.358521,
      "areaSqKm": 1961.123504
    },
    {
      "name": "Sironko",
      "pcode": "UG2061",
      "parentPcode": "UG2",
      "parentName": "Eastern",
      "centroidLat": 1.188007,
      "centroidLng": 34.291861,
      "areaSqKm": 406.162101
    },
    {
      "name": "Soroti",
      "pcode": "UG2062",
      "parentPcode": "UG2",
      "parentName": "Eastern",
      "centroidLat": 1.787906,
      "centroidLng": 33.606816,
      "areaSqKm": 1416.244503
    },
    {
      "name": "Tororo",
      "pcode": "UG2063",
      "parentPcode": "UG2",
      "parentName": "Eastern",
      "centroidLat": 0.73882,
      "centroidLng": 34.102959,
      "areaSqKm": 1191.711611
    },
    {
      "name": "Abim",
      "pcode": "UG3064",
      "parentPcode": "UG3",
      "parentName": "Northern",
      "centroidLat": 2.746219,
      "centroidLng": 33.7262,
      "areaSqKm": 2752.061404
    },
    {
      "name": "Adjumani",
      "pcode": "UG3065",
      "parentPcode": "UG3",
      "parentName": "Northern",
      "centroidLat": 3.234907,
      "centroidLng": 31.786856,
      "areaSqKm": 3113.726677
    },
    {
      "name": "Agago",
      "pcode": "UG3066",
      "parentPcode": "UG3",
      "parentName": "Northern",
      "centroidLat": 2.944957,
      "centroidLng": 33.386863,
      "areaSqKm": 3513.693871
    },
    {
      "name": "Alebtong",
      "pcode": "UG3067",
      "parentPcode": "UG3",
      "parentName": "Northern",
      "centroidLat": 2.266426,
      "centroidLng": 33.325393,
      "areaSqKm": 1555.808581
    },
    {
      "name": "Amolatar",
      "pcode": "UG3068",
      "parentPcode": "UG3",
      "parentName": "Northern",
      "centroidLat": 1.63569,
      "centroidLng": 32.633043,
      "areaSqKm": 1795.916068
    },
    {
      "name": "Amudat",
      "pcode": "UG3069",
      "parentPcode": "UG3",
      "parentName": "Northern",
      "centroidLat": 1.824823,
      "centroidLng": 34.930374,
      "areaSqKm": 1632.220212
    },
    {
      "name": "Amuru",
      "pcode": "UG3070",
      "parentPcode": "UG3",
      "parentName": "Northern",
      "centroidLat": 3.12751,
      "centroidLng": 32.104543,
      "areaSqKm": 3589.82356
    },
    {
      "name": "Apac",
      "pcode": "UG3071",
      "parentPcode": "UG3",
      "parentName": "Northern",
      "centroidLat": 1.931262,
      "centroidLng": 32.502488,
      "areaSqKm": 1790.829884
    },
    {
      "name": "Arua",
      "pcode": "UG3072",
      "parentPcode": "UG3",
      "parentName": "Northern",
      "centroidLat": 2.997659,
      "centroidLng": 31.015188,
      "areaSqKm": 2319.28542
    },
    {
      "name": "Dokolo",
      "pcode": "UG3073",
      "parentPcode": "UG3",
      "parentName": "Northern",
      "centroidLat": 1.907407,
      "centroidLng": 33.075816,
      "areaSqKm": 1086.376252
    },
    {
      "name": "Gulu",
      "pcode": "UG3074",
      "parentPcode": "UG3",
      "parentName": "Northern",
      "centroidLat": 3.01862,
      "centroidLng": 32.388478,
      "areaSqKm": 1871.589122
    },
    {
      "name": "Kaabong",
      "pcode": "UG3075",
      "parentPcode": "UG3",
      "parentName": "Northern",
      "centroidLat": 3.655067,
      "centroidLng": 34.209468,
      "areaSqKm": 4747.580919
    },
    {
      "name": "Karenga",
      "pcode": "UG3076",
      "parentPcode": "UG3",
      "parentName": "Northern",
      "centroidLat": 3.710285,
      "centroidLng": 33.768982,
      "areaSqKm": 2549.139726
    },
    {
      "name": "Kitgum",
      "pcode": "UG3077",
      "parentPcode": "UG3",
      "parentName": "Northern",
      "centroidLat": 3.417429,
      "centroidLng": 33.318466,
      "areaSqKm": 4151.671085
    },
    {
      "name": "Koboko",
      "pcode": "UG3078",
      "parentPcode": "UG3",
      "parentName": "Northern",
      "centroidLat": 3.532839,
      "centroidLng": 30.985109,
      "areaSqKm": 763.217513
    },
    {
      "name": "Kole",
      "pcode": "UG3079",
      "parentPcode": "UG3",
      "parentName": "Northern",
      "centroidLat": 2.298856,
      "centroidLng": 32.738798,
      "areaSqKm": 1071.498624
    },
    {
      "name": "Kotido",
      "pcode": "UG3080",
      "parentPcode": "UG3",
      "parentName": "Northern",
      "centroidLat": 2.989243,
      "centroidLng": 34.034537,
      "areaSqKm": 3630.753029
    },
    {
      "name": "Kwania",
      "pcode": "UG3081",
      "parentPcode": "UG3",
      "parentName": "Northern",
      "centroidLat": 1.900553,
      "centroidLng": 32.774199,
      "areaSqKm": 1407.971873
    },
    {
      "name": "Lamwo",
      "pcode": "UG3082",
      "parentPcode": "UG3",
      "parentName": "Northern",
      "centroidLat": 3.521192,
      "centroidLng": 32.622808,
      "areaSqKm": 5444.463468
    },
    {
      "name": "Lira",
      "pcode": "UG3083",
      "parentPcode": "UG3",
      "parentName": "Northern",
      "centroidLat": 2.332033,
      "centroidLng": 32.950148,
      "areaSqKm": 1322.297981
    },
    {
      "name": "Madi Okollo",
      "pcode": "UG3084",
      "parentPcode": "UG3",
      "parentName": "Northern",
      "centroidLat": 2.866923,
      "centroidLng": 31.238352,
      "areaSqKm": 2019.005788
    },
    {
      "name": "Maracha",
      "pcode": "UG3085",
      "parentPcode": "UG3",
      "parentName": "Northern",
      "centroidLat": 3.243662,
      "centroidLng": 30.926131,
      "areaSqKm": 439.118357
    },
    {
      "name": "Moroto",
      "pcode": "UG3086",
      "parentPcode": "UG3",
      "parentName": "Northern",
      "centroidLat": 2.613397,
      "centroidLng": 34.640758,
      "areaSqKm": 3542.391934
    },
    {
      "name": "Moyo",
      "pcode": "UG3087",
      "parentPcode": "UG3",
      "parentName": "Northern",
      "centroidLat": 3.665309,
      "centroidLng": 31.74658,
      "areaSqKm": 1041.053805
    },
    {
      "name": "Nabilatuk",
      "pcode": "UG3088",
      "parentPcode": "UG3",
      "parentName": "Northern",
      "centroidLat": 2.038124,
      "centroidLng": 34.585665,
      "areaSqKm": 1804.642509
    },
    {
      "name": "Nakapiripirit",
      "pcode": "UG3089",
      "parentPcode": "UG3",
      "parentName": "Northern",
      "centroidLat": 1.84709,
      "centroidLng": 34.638762,
      "areaSqKm": 2378.813006
    },
    {
      "name": "Napak",
      "pcode": "UG3090",
      "parentPcode": "UG3",
      "parentName": "Northern",
      "centroidLat": 2.394985,
      "centroidLng": 34.260424,
      "areaSqKm": 4477.241607
    },
    {
      "name": "Nebbi",
      "pcode": "UG3091",
      "parentPcode": "UG3",
      "parentName": "Northern",
      "centroidLat": 2.432661,
      "centroidLng": 31.162655,
      "areaSqKm": 994.204161
    },
    {
      "name": "Nwoya",
      "pcode": "UG3092",
      "parentPcode": "UG3",
      "parentName": "Northern",
      "centroidLat": 2.525748,
      "centroidLng": 31.871545,
      "areaSqKm": 4736.80548
    },
    {
      "name": "Obongi",
      "pcode": "UG3093",
      "parentPcode": "UG3",
      "parentName": "Northern",
      "centroidLat": 3.363664,
      "centroidLng": 31.537178,
      "areaSqKm": 847.059126
    },
    {
      "name": "Omoro",
      "pcode": "UG3094",
      "parentPcode": "UG3",
      "parentName": "Northern",
      "centroidLat": 2.644603,
      "centroidLng": 32.49839,
      "areaSqKm": 1555.923741
    },
    {
      "name": "Otuke",
      "pcode": "UG3095",
      "parentPcode": "UG3",
      "parentName": "Northern",
      "centroidLat": 2.476273,
      "centroidLng": 33.382707,
      "areaSqKm": 1649.949884
    },
    {
      "name": "Oyam",
      "pcode": "UG3096",
      "parentPcode": "UG3",
      "parentName": "Northern",
      "centroidLat": 2.346114,
      "centroidLng": 32.424083,
      "areaSqKm": 2252.67163
    },
    {
      "name": "Pader",
      "pcode": "UG3097",
      "parentPcode": "UG3",
      "parentName": "Northern",
      "centroidLat": 2.886514,
      "centroidLng": 32.913038,
      "areaSqKm": 3301.635343
    },
    {
      "name": "Pakwach",
      "pcode": "UG3098",
      "parentPcode": "UG3",
      "parentName": "Northern",
      "centroidLat": 2.464871,
      "centroidLng": 31.395542,
      "areaSqKm": 1038.53992
    },
    {
      "name": "Yumbe",
      "pcode": "UG3099",
      "parentPcode": "UG3",
      "parentName": "Northern",
      "centroidLat": 3.488343,
      "centroidLng": 31.284955,
      "areaSqKm": 2327.639972
    },
    {
      "name": "Zombo",
      "pcode": "UG3100",
      "parentPcode": "UG3",
      "parentName": "Northern",
      "centroidLat": 2.52029,
      "centroidLng": 30.875314,
      "areaSqKm": 890.465998
    },
    {
      "name": "Buhweju",
      "pcode": "UG4101",
      "parentPcode": "UG4",
      "parentName": "Western",
      "centroidLat": -0.323024,
      "centroidLng": 30.348089,
      "areaSqKm": 687.129236
    },
    {
      "name": "Buliisa",
      "pcode": "UG4102",
      "parentPcode": "UG4",
      "parentName": "Western",
      "centroidLat": 1.974013,
      "centroidLng": 31.383133,
      "areaSqKm": 2027.113079
    },
    {
      "name": "Bundibugyo",
      "pcode": "UG4103",
      "parentPcode": "UG4",
      "parentName": "Western",
      "centroidLat": 0.647321,
      "centroidLng": 30.042094,
      "areaSqKm": 851.350668
    },
    {
      "name": "Bunyangabu",
      "pcode": "UG4104",
      "parentPcode": "UG4",
      "parentName": "Western",
      "centroidLat": 0.479797,
      "centroidLng": 30.201779,
      "areaSqKm": 498.257883
    },
    {
      "name": "Bushenyi",
      "pcode": "UG4105",
      "parentPcode": "UG4",
      "parentName": "Western",
      "centroidLat": -0.475423,
      "centroidLng": 30.171007,
      "areaSqKm": 905.120359
    },
    {
      "name": "Hoima",
      "pcode": "UG4106",
      "parentPcode": "UG4",
      "parentName": "Western",
      "centroidLat": 1.563806,
      "centroidLng": 31.149457,
      "areaSqKm": 2647.974154
    },
    {
      "name": "Ibanda",
      "pcode": "UG4107",
      "parentPcode": "UG4",
      "parentName": "Western",
      "centroidLat": -0.06193,
      "centroidLng": 30.49224,
      "areaSqKm": 965.611858
    },
    {
      "name": "Isingiro",
      "pcode": "UG4108",
      "parentPcode": "UG4",
      "parentName": "Western",
      "centroidLat": -0.83944,
      "centroidLng": 30.931211,
      "areaSqKm": 2648.362481
    },
    {
      "name": "Kabale",
      "pcode": "UG4109",
      "parentPcode": "UG4",
      "parentName": "Western",
      "centroidLat": -1.335967,
      "centroidLng": 30.036572,
      "areaSqKm": 619.935594
    },
    {
      "name": "Kabarole",
      "pcode": "UG4110",
      "parentPcode": "UG4",
      "parentName": "Western",
      "centroidLat": 0.621332,
      "centroidLng": 30.268038,
      "areaSqKm": 1311.609291
    },
    {
      "name": "Kagadi",
      "pcode": "UG4111",
      "parentPcode": "UG4",
      "parentName": "Western",
      "centroidLat": 1.0199,
      "centroidLng": 30.832249,
      "areaSqKm": 1554.242737
    },
    {
      "name": "Kakumiro",
      "pcode": "UG4112",
      "parentPcode": "UG4",
      "parentName": "Western",
      "centroidLat": 0.960649,
      "centroidLng": 31.290789,
      "areaSqKm": 1667.346299
    },
    {
      "name": "Kamwenge",
      "pcode": "UG4113",
      "parentPcode": "UG4",
      "parentName": "Western",
      "centroidLat": 0.334436,
      "centroidLng": 30.613537,
      "areaSqKm": 1692.781979
    },
    {
      "name": "Kanungu",
      "pcode": "UG4114",
      "parentPcode": "UG4",
      "parentName": "Western",
      "centroidLat": -0.707688,
      "centroidLng": 29.714074,
      "areaSqKm": 1325.297175
    },
    {
      "name": "Kasese",
      "pcode": "UG4115",
      "parentPcode": "UG4",
      "parentName": "Western",
      "centroidLat": 0.135686,
      "centroidLng": 30.008394,
      "areaSqKm": 3387.436781
    },
    {
      "name": "Kazo",
      "pcode": "UG4116",
      "parentPcode": "UG4",
      "parentName": "Western",
      "centroidLat": 0.023641,
      "centroidLng": 30.752427,
      "areaSqKm": 1556.252855
    },
    {
      "name": "Kibaale",
      "pcode": "UG4117",
      "parentPcode": "UG4",
      "parentName": "Western",
      "centroidLat": 0.820976,
      "centroidLng": 31.026655,
      "areaSqKm": 1164.911124
    },
    {
      "name": "Kikuube",
      "pcode": "UG4118",
      "parentPcode": "UG4",
      "parentName": "Western",
      "centroidLat": 1.308385,
      "centroidLng": 31.00109,
      "areaSqKm": 2990.580552
    },
    {
      "name": "Kiruhura",
      "pcode": "UG4119",
      "parentPcode": "UG4",
      "parentName": "Western",
      "centroidLat": -0.326982,
      "centroidLng": 30.873089,
      "areaSqKm": 3043.415929
    },
    {
      "name": "Kiryandongo",
      "pcode": "UG4120",
      "parentPcode": "UG4",
      "parentName": "Western",
      "centroidLat": 1.991014,
      "centroidLng": 32.050567,
      "areaSqKm": 3633.97234
    },
    {
      "name": "Kisoro",
      "pcode": "UG4121",
      "parentPcode": "UG4",
      "parentName": "Western",
      "centroidLat": -1.197863,
      "centroidLng": 29.668534,
      "areaSqKm": 725.971132
    },
    {
      "name": "Kitagwenda",
      "pcode": "UG4122",
      "parentPcode": "UG4",
      "parentName": "Western",
      "centroidLat": 0.013776,
      "centroidLng": 30.324288,
      "areaSqKm": 715.583582
    },
    {
      "name": "Kyegegwa",
      "pcode": "UG4123",
      "parentPcode": "UG4",
      "parentName": "Western",
      "centroidLat": 0.478219,
      "centroidLng": 31.000576,
      "areaSqKm": 1746.279658
    },
    {
      "name": "Kyenjojo",
      "pcode": "UG4124",
      "parentPcode": "UG4",
      "parentName": "Western",
      "centroidLat": 0.642676,
      "centroidLng": 30.658676,
      "areaSqKm": 2345.927476
    },
    {
      "name": "Masindi",
      "pcode": "UG4125",
      "parentPcode": "UG4",
      "parentName": "Western",
      "centroidLat": 1.812097,
      "centroidLng": 31.737279,
      "areaSqKm": 3922.836039
    },
    {
      "name": "Mbarara",
      "pcode": "UG4126",
      "parentPcode": "UG4",
      "parentName": "Western",
      "centroidLat": -0.487474,
      "centroidLng": 30.627567,
      "areaSqKm": 1241.594354
    },
    {
      "name": "Mitooma",
      "pcode": "UG4127",
      "parentPcode": "UG4",
      "parentName": "Western",
      "centroidLat": -0.609149,
      "centroidLng": 30.007755,
      "areaSqKm": 544.027456
    },
    {
      "name": "Ntoroko",
      "pcode": "UG4128",
      "parentPcode": "UG4",
      "parentName": "Western",
      "centroidLat": 0.989963,
      "centroidLng": 30.387189,
      "areaSqKm": 1402.372167
    },
    {
      "name": "Ntungamo",
      "pcode": "UG4129",
      "parentPcode": "UG4",
      "parentName": "Western",
      "centroidLat": -0.956453,
      "centroidLng": 30.300004,
      "areaSqKm": 2022.362988
    },
    {
      "name": "Rubanda",
      "pcode": "UG4130",
      "parentPcode": "UG4",
      "parentName": "Western",
      "centroidLat": -1.174519,
      "centroidLng": 29.900119,
      "areaSqKm": 689.845705
    },
    {
      "name": "Rubirizi",
      "pcode": "UG4131",
      "parentPcode": "UG4",
      "parentName": "Western",
      "centroidLat": -0.26144,
      "centroidLng": 29.951702,
      "areaSqKm": 1469.209222
    },
    {
      "name": "Rukiga",
      "pcode": "UG4132",
      "parentPcode": "UG4",
      "parentName": "Western",
      "centroidLat": -1.146832,
      "centroidLng": 30.054593,
      "areaSqKm": 427.117547
    },
    {
      "name": "Rukungiri",
      "pcode": "UG4133",
      "parentPcode": "UG4",
      "parentName": "Western",
      "centroidLat": -0.698964,
      "centroidLng": 29.890731,
      "areaSqKm": 1529.257693
    },
    {
      "name": "Rwampara",
      "pcode": "UG4134",
      "parentPcode": "UG4",
      "parentName": "Western",
      "centroidLat": -0.734864,
      "centroidLng": 30.460781,
      "areaSqKm": 574.681602
    },
    {
      "name": "Sheema",
      "pcode": "UG4135",
      "parentPcode": "UG4",
      "parentName": "Western",
      "centroidLat": -0.594637,
      "centroidLng": 30.372692,
      "areaSqKm": 699.083494
    }
  ],
  "counties": [
    {
      "name": "Buikwe",
      "pcode": "UG100101",
      "parentPcode": "UG1001",
      "parentName": "Buikwe",
      "centroidLat": 0.208957,
      "centroidLng": 33.021624,
      "areaSqKm": 732.160098
    },
    {
      "name": "KCCA",
      "pcode": "UG100102",
      "parentPcode": "UG1001",
      "parentName": "Buikwe",
      "centroidLat": 0.382839,
      "centroidLng": 32.932928,
      "areaSqKm": 18.35386
    },
    {
      "name": "Lugazi Municipality",
      "pcode": "UG100103",
      "parentPcode": "UG1001",
      "parentName": "Buikwe",
      "centroidLat": 0.375415,
      "centroidLng": 33.02845,
      "areaSqKm": 314.920622
    },
    {
      "name": "Njeru Municipality",
      "pcode": "UG100104",
      "parentPcode": "UG1001",
      "parentName": "Buikwe",
      "centroidLat": 0.42321,
      "centroidLng": 33.148228,
      "areaSqKm": 387.762176
    },
    {
      "name": "Bukomansimbi",
      "pcode": "UG100201",
      "parentPcode": "UG1002",
      "parentName": "Bukomansimbi",
      "centroidLat": -0.128473,
      "centroidLng": 31.623712,
      "areaSqKm": 599.837286
    },
    {
      "name": "Butambala",
      "pcode": "UG100301",
      "parentPcode": "UG1003",
      "parentName": "Butambala",
      "centroidLat": 0.161658,
      "centroidLng": 32.136032,
      "areaSqKm": 405.601359
    },
    {
      "name": "Buvuma Island",
      "pcode": "UG100401",
      "parentPcode": "UG1004",
      "parentName": "Buvuma",
      "centroidLat": -0.346607,
      "centroidLng": 33.198553,
      "areaSqKm": 9619.551867
    },
    {
      "name": "Gomba",
      "pcode": "UG100501",
      "parentPcode": "UG1005",
      "parentName": "Gomba",
      "centroidLat": 0.202704,
      "centroidLng": 31.737435,
      "areaSqKm": 1670.567816
    },
    {
      "name": "Bujumba",
      "pcode": "UG100601",
      "parentPcode": "UG1006",
      "parentName": "Kalangala",
      "centroidLat": -0.356382,
      "centroidLng": 32.187887,
      "areaSqKm": 1270.603638
    },
    {
      "name": "Kyamuswa",
      "pcode": "UG100602",
      "parentPcode": "UG1006",
      "parentName": "Kalangala",
      "centroidLat": -0.571871,
      "centroidLng": 32.438102,
      "areaSqKm": 7780.603416
    },
    {
      "name": "Kalungu",
      "pcode": "UG100701",
      "parentPcode": "UG1007",
      "parentName": "Kalungu",
      "centroidLat": -0.099728,
      "centroidLng": 31.81462,
      "areaSqKm": 837.185592
    },
    {
      "name": "KCCA",
      "pcode": "UG100801",
      "parentPcode": "UG1008",
      "parentName": "Kampala",
      "centroidLat": 0.310067,
      "centroidLng": 32.586901,
      "areaSqKm": 195.285766
    },
    {
      "name": "Kassanda",
      "pcode": "UG100901",
      "parentPcode": "UG1009",
      "parentName": "Kassanda",
      "centroidLat": 0.530584,
      "centroidLng": 31.762909,
      "areaSqKm": 1918.65861
    },
    {
      "name": "Bbaale",
      "pcode": "UG101001",
      "parentPcode": "UG1010",
      "parentName": "Kayunga",
      "centroidLat": 1.12611,
      "centroidLng": 32.879138,
      "areaSqKm": 1251.457622
    },
    {
      "name": "Ntenjeru",
      "pcode": "UG101002",
      "parentPcode": "UG1010",
      "parentName": "Kayunga",
      "centroidLat": 0.691002,
      "centroidLng": 32.964708,
      "areaSqKm": 527.557216
    },
    {
      "name": "Kiboga",
      "pcode": "UG101101",
      "parentPcode": "UG1011",
      "parentName": "Kiboga",
      "centroidLat": 0.854898,
      "centroidLng": 31.929349,
      "areaSqKm": 1573.937674
    },
    {
      "name": "Kiboga",
      "pcode": "UG101201",
      "parentPcode": "UG1012",
      "parentName": "Kyankwanzi",
      "centroidLat": 1.090648,
      "centroidLng": 31.682118,
      "areaSqKm": 2464.011815
    },
    {
      "name": "Kyotera",
      "pcode": "UG101301",
      "parentPcode": "UG1013",
      "parentName": "Kyotera",
      "centroidLat": -0.716824,
      "centroidLng": 31.620666,
      "areaSqKm": 2448.624154
    },
    {
      "name": "Bamunanika",
      "pcode": "UG101401",
      "parentPcode": "UG1014",
      "parentName": "Luwero",
      "centroidLat": 0.850068,
      "centroidLng": 32.70124,
      "areaSqKm": 1179.966352
    },
    {
      "name": "Katikamu",
      "pcode": "UG101402",
      "parentPcode": "UG1014",
      "parentName": "Luwero",
      "centroidLat": 0.841697,
      "centroidLng": 32.52215,
      "areaSqKm": 1037.656623
    },
    {
      "name": "Bukoto",
      "pcode": "UG101501",
      "parentPcode": "UG1015",
      "parentName": "Lwengo",
      "centroidLat": -0.446941,
      "centroidLng": 31.399814,
      "areaSqKm": 1024.388181
    },
    {
      "name": "Kabula",
      "pcode": "UG101601",
      "parentPcode": "UG1016",
      "parentName": "Lyantonde",
      "centroidLat": -0.262331,
      "centroidLng": 31.184368,
      "areaSqKm": 865.97157
    },
    {
      "name": "Bukoto",
      "pcode": "UG101701",
      "parentPcode": "UG1017",
      "parentName": "Masaka",
      "centroidLat": -0.486166,
      "centroidLng": 31.832509,
      "areaSqKm": 2152.039198
    },
    {
      "name": "Masaka Municipality",
      "pcode": "UG101702",
      "parentPcode": "UG1017",
      "parentName": "Masaka",
      "centroidLat": -0.336906,
      "centroidLng": 31.732269,
      "areaSqKm": 46.204293
    },
    {
      "name": "Busujju",
      "pcode": "UG101801",
      "parentPcode": "UG1018",
      "parentName": "Mityana",
      "centroidLat": 0.300932,
      "centroidLng": 32.006156,
      "areaSqKm": 492.525154
    },
    {
      "name": "KCCA",
      "pcode": "UG101802",
      "parentPcode": "UG1018",
      "parentName": "Mityana",
      "centroidLat": 0.376019,
      "centroidLng": 31.991104,
      "areaSqKm": 83.057655
    },
    {
      "name": "Mityana",
      "pcode": "UG101803",
      "parentPcode": "UG1018",
      "parentName": "Mityana",
      "centroidLat": 0.535568,
      "centroidLng": 32.058262,
      "areaSqKm": 828.201209
    },
    {
      "name": "Mityana Municipality",
      "pcode": "UG101804",
      "parentPcode": "UG1018",
      "parentName": "Mityana",
      "centroidLat": 0.387533,
      "centroidLng": 32.112029,
      "areaSqKm": 179.601682
    },
    {
      "name": "Mawokota",
      "pcode": "UG101901",
      "parentPcode": "UG1019",
      "parentName": "Mpigi",
      "centroidLat": 0.126145,
      "centroidLng": 32.254266,
      "areaSqKm": 1525.155912
    },
    {
      "name": "Buwekula",
      "pcode": "UG102001",
      "parentPcode": "UG1020",
      "parentName": "Mubende",
      "centroidLat": 0.582462,
      "centroidLng": 31.516635,
      "areaSqKm": 1335.729336
    },
    {
      "name": "Kasambya",
      "pcode": "UG102002",
      "parentPcode": "UG1020",
      "parentName": "Mubende",
      "centroidLat": 0.383057,
      "centroidLng": 31.266963,
      "areaSqKm": 1093.844791
    },
    {
      "name": "Mubende Municipality",
      "pcode": "UG102003",
      "parentPcode": "UG1020",
      "parentName": "Mubende",
      "centroidLat": 0.580745,
      "centroidLng": 31.38799,
      "areaSqKm": 281.834511
    },
    {
      "name": "KCCA",
      "pcode": "UG102101",
      "parentPcode": "UG1021",
      "parentName": "Mukono",
      "centroidLat": 0.343583,
      "centroidLng": 32.757893,
      "areaSqKm": 36.714028
    },
    {
      "name": "Mukono",
      "pcode": "UG102102",
      "parentPcode": "UG1021",
      "parentName": "Mukono",
      "centroidLat": 0.211127,
      "centroidLng": 32.763968,
      "areaSqKm": 1802.34701
    },
    {
      "name": "Mukono Municipality",
      "pcode": "UG102103",
      "parentPcode": "UG1021",
      "parentName": "Mukono",
      "centroidLat": 0.380274,
      "centroidLng": 32.70309,
      "areaSqKm": 114.955812
    },
    {
      "name": "Nakifuma",
      "pcode": "UG102104",
      "parentPcode": "UG1021",
      "parentName": "Mukono",
      "centroidLat": 0.611341,
      "centroidLng": 32.842099,
      "areaSqKm": 829.876981
    },
    {
      "name": "Nakaseke",
      "pcode": "UG102201",
      "parentPcode": "UG1022",
      "parentName": "Nakaseke",
      "centroidLat": 1.000198,
      "centroidLng": 32.176613,
      "areaSqKm": 3477.476957
    },
    {
      "name": "Buruli",
      "pcode": "UG102301",
      "parentPcode": "UG1023",
      "parentName": "Nakasongola",
      "centroidLat": 1.315739,
      "centroidLng": 32.4908,
      "areaSqKm": 3511.046722
    },
    {
      "name": "Kooki",
      "pcode": "UG102401",
      "parentPcode": "UG1024",
      "parentName": "Rakai",
      "centroidLat": -0.727322,
      "centroidLng": 31.338911,
      "areaSqKm": 1591.744543
    },
    {
      "name": "Lwemiyaga",
      "pcode": "UG102501",
      "parentPcode": "UG1025",
      "parentName": "Ssembabule",
      "centroidLat": 0.062598,
      "centroidLng": 31.181214,
      "areaSqKm": 792.23932
    },
    {
      "name": "Mawogola",
      "pcode": "UG102502",
      "parentPcode": "UG1025",
      "parentName": "Ssembabule",
      "centroidLat": -0.068742,
      "centroidLng": 31.419179,
      "areaSqKm": 1548.192878
    },
    {
      "name": "Busiro",
      "pcode": "UG102601",
      "parentPcode": "UG1026",
      "parentName": "Wakiso",
      "centroidLat": 0.213325,
      "centroidLng": 32.467714,
      "areaSqKm": 1986.356634
    },
    {
      "name": "Entebbe Municipality",
      "pcode": "UG102602",
      "parentPcode": "UG1026",
      "parentName": "Wakiso",
      "centroidLat": -0.025044,
      "centroidLng": 32.446668,
      "areaSqKm": 243.968775
    },
    {
      "name": "Kira Municipality",
      "pcode": "UG102603",
      "parentPcode": "UG1026",
      "parentName": "Wakiso",
      "centroidLat": 0.384909,
      "centroidLng": 32.645968,
      "areaSqKm": 96.514606
    },
    {
      "name": "Kyadondo",
      "pcode": "UG102604",
      "parentPcode": "UG1026",
      "parentName": "Wakiso",
      "centroidLat": 0.45466,
      "centroidLng": 32.583311,
      "areaSqKm": 99.371644
    },
    {
      "name": "Makindye Ssabagabo Municipality",
      "pcode": "UG102605",
      "parentPcode": "UG1026",
      "parentName": "Wakiso",
      "centroidLat": 0.231137,
      "centroidLng": 32.578283,
      "areaSqKm": 84.982308
    },
    {
      "name": "Nansana Municipality",
      "pcode": "UG102606",
      "parentPcode": "UG1026",
      "parentName": "Wakiso",
      "centroidLat": 0.464528,
      "centroidLng": 32.508915,
      "areaSqKm": 297.671596
    },
    {
      "name": "Amuria",
      "pcode": "UG202701",
      "parentPcode": "UG2027",
      "parentName": "Amuria",
      "centroidLat": 1.980771,
      "centroidLng": 33.6582,
      "areaSqKm": 1382.496593
    },
    {
      "name": "Budaka",
      "pcode": "UG202801",
      "parentPcode": "UG2028",
      "parentName": "Budaka",
      "centroidLat": 1.021645,
      "centroidLng": 33.981157,
      "areaSqKm": 223.906732
    },
    {
      "name": "Iki-Iki",
      "pcode": "UG202802",
      "parentPcode": "UG2028",
      "parentName": "Budaka",
      "centroidLat": 1.114161,
      "centroidLng": 34.020699,
      "areaSqKm": 187.142536
    },
    {
      "name": "Manjiya",
      "pcode": "UG202901",
      "parentPcode": "UG2029",
      "parentName": "Bududa",
      "centroidLat": 1.0262,
      "centroidLng": 34.390654,
      "areaSqKm": 317.414729
    },
    {
      "name": "Bugiri Municipality",
      "pcode": "UG203001",
      "parentPcode": "UG2030",
      "parentName": "Bugiri",
      "centroidLat": 0.562999,
      "centroidLng": 33.752546,
      "areaSqKm": 9.156576
    },
    {
      "name": "Bukooli",
      "pcode": "UG203002",
      "parentPcode": "UG2030",
      "parentName": "Bugiri",
      "centroidLat": 0.518767,
      "centroidLng": 33.773168,
      "areaSqKm": 1044.502352
    },
    {
      "name": "Bugweri",
      "pcode": "UG203101",
      "parentPcode": "UG2031",
      "parentName": "Bugweri",
      "centroidLat": 0.622056,
      "centroidLng": 33.615743,
      "areaSqKm": 379.083148
    },
    {
      "name": "Bukedea",
      "pcode": "UG203201",
      "parentPcode": "UG2032",
      "parentName": "Bukedea",
      "centroidLat": 1.369328,
      "centroidLng": 34.142039,
      "areaSqKm": 1050.102188
    },
    {
      "name": "Kongasis",
      "pcode": "UG203301",
      "parentPcode": "UG2033",
      "parentName": "Bukwo",
      "centroidLat": 1.269617,
      "centroidLng": 34.69805,
      "areaSqKm": 560.090446
    },
    {
      "name": "Bulambuli",
      "pcode": "UG203401",
      "parentPcode": "UG2034",
      "parentName": "Bulambuli",
      "centroidLat": 1.348458,
      "centroidLng": 34.278657,
      "areaSqKm": 693.770563
    },
    {
      "name": "Busia Municipality",
      "pcode": "UG203501",
      "parentPcode": "UG2035",
      "parentName": "Busia",
      "centroidLat": 0.468235,
      "centroidLng": 34.091045,
      "areaSqKm": 7.154507
    },
    {
      "name": "Samia-Bugwe",
      "pcode": "UG203502",
      "parentPcode": "UG2035",
      "parentName": "Busia",
      "centroidLat": 0.391207,
      "centroidLng": 34.015913,
      "areaSqKm": 755.134976
    },
    {
      "name": "Bunyole",
      "pcode": "UG203601",
      "parentPcode": "UG2036",
      "parentName": "Butaleja",
      "centroidLat": 0.865798,
      "centroidLng": 33.885074,
      "areaSqKm": 654.68584
    },
    {
      "name": "Butebo",
      "pcode": "UG203701",
      "parentPcode": "UG2037",
      "parentName": "Butebo",
      "centroidLat": 1.171709,
      "centroidLng": 34.059641,
      "areaSqKm": 237.929916
    },
    {
      "name": "Budiope",
      "pcode": "UG203801",
      "parentPcode": "UG2038",
      "parentName": "Buyende",
      "centroidLat": 1.232795,
      "centroidLng": 33.176481,
      "areaSqKm": 1845.203102
    },
    {
      "name": "Iganga Municipality",
      "pcode": "UG203901",
      "parentPcode": "UG2039",
      "parentName": "Iganga",
      "centroidLat": 0.612529,
      "centroidLng": 33.477217,
      "areaSqKm": 7.66103
    },
    {
      "name": "Kigulu",
      "pcode": "UG203902",
      "parentPcode": "UG2039",
      "parentName": "Iganga",
      "centroidLat": 0.722271,
      "centroidLng": 33.501585,
      "areaSqKm": 630.907542
    },
    {
      "name": "Butembe",
      "pcode": "UG204001",
      "parentPcode": "UG2040",
      "parentName": "Jinja",
      "centroidLat": 0.55376,
      "centroidLng": 33.295309,
      "areaSqKm": 261.435878
    },
    {
      "name": "Jinja Municipality",
      "pcode": "UG204002",
      "parentPcode": "UG2040",
      "parentName": "Jinja",
      "centroidLat": 0.428432,
      "centroidLng": 33.237688,
      "areaSqKm": 63.544087
    },
    {
      "name": "Kagoma",
      "pcode": "UG204003",
      "parentPcode": "UG2040",
      "parentName": "Jinja",
      "centroidLat": 0.588452,
      "centroidLng": 33.164492,
      "areaSqKm": 399.449692
    },
    {
      "name": "Kaberamaido",
      "pcode": "UG204101",
      "parentPcode": "UG2041",
      "parentName": "Kaberamaido",
      "centroidLat": 1.68527,
      "centroidLng": 33.117162,
      "areaSqKm": 887.469963
    },
    {
      "name": "Kalaki",
      "pcode": "UG204201",
      "parentPcode": "UG2042",
      "parentName": "Kalaki",
      "centroidLat": 1.829564,
      "centroidLng": 33.356453,
      "areaSqKm": 737.114856
    },
    {
      "name": "Bulamogi",
      "pcode": "UG204301",
      "parentPcode": "UG2043",
      "parentName": "Kaliro",
      "centroidLat": 1.079841,
      "centroidLng": 33.482192,
      "areaSqKm": 869.871896
    },
    {
      "name": "Bugabula",
      "pcode": "UG204401",
      "parentPcode": "UG2044",
      "parentName": "Kamuli",
      "centroidLat": 1.003331,
      "centroidLng": 33.076993,
      "areaSqKm": 1015.138616
    },
    {
      "name": "Buzaaya",
      "pcode": "UG204402",
      "parentPcode": "UG2044",
      "parentName": "Kamuli",
      "centroidLat": 0.776018,
      "centroidLng": 33.146374,
      "areaSqKm": 407.12956
    },
    {
      "name": "Kamuli Municipality",
      "pcode": "UG204403",
      "parentPcode": "UG2044",
      "parentName": "Kamuli",
      "centroidLat": 0.926379,
      "centroidLng": 33.117808,
      "areaSqKm": 95.078527
    },
    {
      "name": "Kapchorwa Municipality",
      "pcode": "UG204501",
      "parentPcode": "UG2045",
      "parentName": "Kapchorwa",
      "centroidLat": 1.336354,
      "centroidLng": 34.460024,
      "areaSqKm": 148.840549
    },
    {
      "name": "Tingey",
      "pcode": "UG204502",
      "parentPcode": "UG2045",
      "parentName": "Kapchorwa",
      "centroidLat": 1.289582,
      "centroidLng": 34.445851,
      "areaSqKm": 193.61851
    },
    {
      "name": "Tingey",
      "pcode": "UG204502",
      "parentPcode": "UG2045",
      "parentName": "Kapchorwa",
      "centroidLat": 1.434898,
      "centroidLng": 34.44505,
      "areaSqKm": 39.20102
    },
    {
      "name": "Kapelebyong",
      "pcode": "UG204601",
      "parentPcode": "UG2046",
      "parentName": "Kapelebyong",
      "centroidLat": 2.195319,
      "centroidLng": 33.777359,
      "areaSqKm": 1201.600657
    },
    {
      "name": "Katakwi",
      "pcode": "UG204701",
      "parentPcode": "UG2047",
      "parentName": "Katakwi",
      "centroidLat": 2.034929,
      "centroidLng": 34.058479,
      "areaSqKm": 1703.997239
    },
    {
      "name": "Toroma",
      "pcode": "UG204702",
      "parentPcode": "UG2047",
      "parentName": "Katakwi",
      "centroidLat": 1.74532,
      "centroidLng": 34.033502,
      "areaSqKm": 725.035198
    },
    {
      "name": "Kibuku",
      "pcode": "UG204801",
      "parentPcode": "UG2048",
      "parentName": "Kibuku",
      "centroidLat": 1.055452,
      "centroidLng": 33.805679,
      "areaSqKm": 489.119531
    },
    {
      "name": "Kumi",
      "pcode": "UG204901",
      "parentPcode": "UG2049",
      "parentName": "Kumi",
      "centroidLat": 1.45552,
      "centroidLng": 33.878385,
      "areaSqKm": 981.5583
    },
    {
      "name": "Kumi Municipality",
      "pcode": "UG204902",
      "parentPcode": "UG2049",
      "parentName": "Kumi",
      "centroidLat": 1.483066,
      "centroidLng": 33.9396,
      "areaSqKm": 93.062206
    },
    {
      "name": "Kween",
      "pcode": "UG205001",
      "parentPcode": "UG2050",
      "parentName": "Kween",
      "centroidLat": 1.350733,
      "centroidLng": 34.560994,
      "areaSqKm": 789.584038
    },
    {
      "name": "Luuka",
      "pcode": "UG205101",
      "parentPcode": "UG2051",
      "parentName": "Luuka",
      "centroidLat": 0.818417,
      "centroidLng": 33.327621,
      "areaSqKm": 649.674294
    },
    {
      "name": "Bubulo",
      "pcode": "UG205201",
      "parentPcode": "UG2052",
      "parentName": "Manafwa",
      "centroidLat": 0.882602,
      "centroidLng": 34.269787,
      "areaSqKm": 237.669426
    },
    {
      "name": "Bunya",
      "pcode": "UG205301",
      "parentPcode": "UG2053",
      "parentName": "Mayuge",
      "centroidLat": -0.19313,
      "centroidLng": 33.590446,
      "areaSqKm": 3382.766526
    },
    {
      "name": "Bungokho",
      "pcode": "UG205401",
      "parentPcode": "UG2054",
      "parentName": "Mbale",
      "centroidLat": 1.001917,
      "centroidLng": 34.19697,
      "areaSqKm": 493.908092
    },
    {
      "name": "Mbale Municipality",
      "pcode": "UG205402",
      "parentPcode": "UG2054",
      "parentName": "Mbale",
      "centroidLat": 1.078609,
      "centroidLng": 34.172598,
      "areaSqKm": 24.096592
    },
    {
      "name": "Bukooli",
      "pcode": "UG205501",
      "parentPcode": "UG2055",
      "parentName": "Namayingo",
      "centroidLat": -0.269926,
      "centroidLng": 33.813673,
      "areaSqKm": 4667.687612
    },
    {
      "name": "Bubulo",
      "pcode": "UG205601",
      "parentPcode": "UG2056",
      "parentName": "Namisindwa",
      "centroidLat": 0.863577,
      "centroidLng": 34.383813,
      "areaSqKm": 299.670181
    },
    {
      "name": "Busiki",
      "pcode": "UG205701",
      "parentPcode": "UG2057",
      "parentName": "Namutumba",
      "centroidLat": 0.886814,
      "centroidLng": 33.666402,
      "areaSqKm": 814.553706
    },
    {
      "name": "Ngora",
      "pcode": "UG205801",
      "parentPcode": "UG2058",
      "parentName": "Ngora",
      "centroidLat": 1.496159,
      "centroidLng": 33.773679,
      "areaSqKm": 721.329562
    },
    {
      "name": "Butebo",
      "pcode": "UG205901",
      "parentPcode": "UG2059",
      "parentName": "Pallisa",
      "centroidLat": 1.236245,
      "centroidLng": 33.819223,
      "areaSqKm": 86.127991
    },
    {
      "name": "Pallisa",
      "pcode": "UG205902",
      "parentPcode": "UG2059",
      "parentName": "Pallisa",
      "centroidLat": 1.217041,
      "centroidLng": 33.624168,
      "areaSqKm": 773.122827
    },
    {
      "name": "Kasilo",
      "pcode": "UG206001",
      "parentPcode": "UG2060",
      "parentName": "Serere",
      "centroidLat": 1.503497,
      "centroidLng": 33.229712,
      "areaSqKm": 1139.990747
    },
    {
      "name": "Serere",
      "pcode": "UG206002",
      "parentPcode": "UG2060",
      "parentName": "Serere",
      "centroidLat": 1.49097,
      "centroidLng": 33.56558,
      "areaSqKm": 821.132758
    },
    {
      "name": "Budadiri",
      "pcode": "UG206101",
      "parentPcode": "UG2061",
      "parentName": "Sironko",
      "centroidLat": 1.188007,
      "centroidLng": 34.291861,
      "areaSqKm": 406.162101
    },
    {
      "name": "Soroti",
      "pcode": "UG206201",
      "parentPcode": "UG2062",
      "parentName": "Soroti",
      "centroidLat": 1.787906,
      "centroidLng": 33.606816,
      "areaSqKm": 1386.135455
    },
    {
      "name": "Soroti Municipality",
      "pcode": "UG206202",
      "parentPcode": "UG2062",
      "parentName": "Soroti",
      "centroidLat": 1.72625,
      "centroidLng": 33.620703,
      "areaSqKm": 30.109048
    },
    {
      "name": "Tororo",
      "pcode": "UG206301",
      "parentPcode": "UG2063",
      "parentName": "Tororo",
      "centroidLat": 0.741703,
      "centroidLng": 34.248063,
      "areaSqKm": 398.585948
    },
    {
      "name": "Tororo Municipality",
      "pcode": "UG206302",
      "parentPcode": "UG2063",
      "parentName": "Tororo",
      "centroidLat": 0.682353,
      "centroidLng": 34.179821,
      "areaSqKm": 30.86601
    },
    {
      "name": "West Budama (Kisolo)",
      "pcode": "UG206303",
      "parentPcode": "UG2063",
      "parentName": "Tororo",
      "centroidLat": 0.730257,
      "centroidLng": 34.036989,
      "areaSqKm": 762.259653
    },
    {
      "name": "Labwor",
      "pcode": "UG306401",
      "parentPcode": "UG3064",
      "parentName": "Abim",
      "centroidLat": 2.746219,
      "centroidLng": 33.7262,
      "areaSqKm": 2752.061404
    },
    {
      "name": "East Moyo",
      "pcode": "UG306501",
      "parentPcode": "UG3065",
      "parentName": "Adjumani",
      "centroidLat": 3.234907,
      "centroidLng": 31.786856,
      "areaSqKm": 3113.726677
    },
    {
      "name": "Agago",
      "pcode": "UG306601",
      "parentPcode": "UG3066",
      "parentName": "Agago",
      "centroidLat": 2.944957,
      "centroidLng": 33.386863,
      "areaSqKm": 3513.693871
    },
    {
      "name": "Moroto",
      "pcode": "UG306701",
      "parentPcode": "UG3067",
      "parentName": "Alebtong",
      "centroidLat": 2.266426,
      "centroidLng": 33.325393,
      "areaSqKm": 1555.808581
    },
    {
      "name": "Kioga",
      "pcode": "UG306801",
      "parentPcode": "UG3068",
      "parentName": "Amolatar",
      "centroidLat": 1.63569,
      "centroidLng": 32.633043,
      "areaSqKm": 1795.916068
    },
    {
      "name": "Pokot",
      "pcode": "UG306901",
      "parentPcode": "UG3069",
      "parentName": "Amudat",
      "centroidLat": 1.824823,
      "centroidLng": 34.930374,
      "areaSqKm": 1632.220212
    },
    {
      "name": "Kilak",
      "pcode": "UG307001",
      "parentPcode": "UG3070",
      "parentName": "Amuru",
      "centroidLat": 3.12751,
      "centroidLng": 32.104543,
      "areaSqKm": 3589.82356
    },
    {
      "name": "Apac Municipality",
      "pcode": "UG307101",
      "parentPcode": "UG3071",
      "parentName": "Apac",
      "centroidLat": 1.968124,
      "centroidLng": 32.543222,
      "areaSqKm": 204.383349
    },
    {
      "name": "Maruzi",
      "pcode": "UG307102",
      "parentPcode": "UG3071",
      "parentName": "Apac",
      "centroidLat": 1.931262,
      "centroidLng": 32.422195,
      "areaSqKm": 1586.446534
    },
    {
      "name": "Arua Municipality",
      "pcode": "UG307201",
      "parentPcode": "UG3072",
      "parentName": "Arua",
      "centroidLat": 3.01931,
      "centroidLng": 30.91746,
      "areaSqKm": 10.18814
    },
    {
      "name": "Ayivu",
      "pcode": "UG307202",
      "parentPcode": "UG3072",
      "parentName": "Arua",
      "centroidLat": 3.048026,
      "centroidLng": 30.853591,
      "areaSqKm": 337.506354
    },
    {
      "name": "Terego",
      "pcode": "UG307203",
      "parentPcode": "UG3072",
      "parentName": "Arua",
      "centroidLat": 3.180116,
      "centroidLng": 31.172238,
      "areaSqKm": 1157.128017
    },
    {
      "name": "Vurra",
      "pcode": "UG307204",
      "parentPcode": "UG3072",
      "parentName": "Arua",
      "centroidLat": 2.834173,
      "centroidLng": 30.960245,
      "areaSqKm": 814.462909
    },
    {
      "name": "Dokolo",
      "pcode": "UG307301",
      "parentPcode": "UG3073",
      "parentName": "Dokolo",
      "centroidLat": 1.907407,
      "centroidLng": 33.075816,
      "areaSqKm": 1086.376252
    },
    {
      "name": "Aswa",
      "pcode": "UG307401",
      "parentPcode": "UG3074",
      "parentName": "Gulu",
      "centroidLat": 3.033597,
      "centroidLng": 32.380202,
      "areaSqKm": 1817.143746
    },
    {
      "name": "Gulu Municipality",
      "pcode": "UG307402",
      "parentPcode": "UG3074",
      "parentName": "Gulu",
      "centroidLat": 2.781108,
      "centroidLng": 32.287718,
      "areaSqKm": 54.445376
    },
    {
      "name": "Dodoth",
      "pcode": "UG307501",
      "parentPcode": "UG3075",
      "parentName": "Kaabong",
      "centroidLat": 3.655067,
      "centroidLng": 34.209468,
      "areaSqKm": 4747.580919
    },
    {
      "name": "Dodoth",
      "pcode": "UG307601",
      "parentPcode": "UG3076",
      "parentName": "Karenga",
      "centroidLat": 3.710285,
      "centroidLng": 33.768982,
      "areaSqKm": 2549.139726
    },
    {
      "name": "Chua",
      "pcode": "UG307701",
      "parentPcode": "UG3077",
      "parentName": "Kitgum",
      "centroidLat": 3.417429,
      "centroidLng": 33.318466,
      "areaSqKm": 4122.03618
    },
    {
      "name": "Kitgum Municipality",
      "pcode": "UG307702",
      "parentPcode": "UG3077",
      "parentName": "Kitgum",
      "centroidLat": 3.29871,
      "centroidLng": 32.884661,
      "areaSqKm": 29.634905
    },
    {
      "name": "Koboko",
      "pcode": "UG307801",
      "parentPcode": "UG3078",
      "parentName": "Koboko",
      "centroidLat": 3.532839,
      "centroidLng": 30.985109,
      "areaSqKm": 740.558814
    },
    {
      "name": "Koboko Municipality",
      "pcode": "UG307802",
      "parentPcode": "UG3078",
      "parentName": "Koboko",
      "centroidLat": 3.401832,
      "centroidLng": 30.952013,
      "areaSqKm": 22.658698
    },
    {
      "name": "Kole",
      "pcode": "UG307901",
      "parentPcode": "UG3079",
      "parentName": "Kole",
      "centroidLat": 2.298856,
      "centroidLng": 32.738798,
      "areaSqKm": 1071.498624
    },
    {
      "name": "Jie",
      "pcode": "UG308001",
      "parentPcode": "UG3080",
      "parentName": "Kotido",
      "centroidLat": 2.989006,
      "centroidLng": 33.87598,
      "areaSqKm": 3353.359081
    },
    {
      "name": "Kotido Municipality",
      "pcode": "UG308002",
      "parentPcode": "UG3080",
      "parentName": "Kotido",
      "centroidLat": 2.984442,
      "centroidLng": 34.072719,
      "areaSqKm": 277.393948
    },
    {
      "name": "Kwania",
      "pcode": "UG308101",
      "parentPcode": "UG3081",
      "parentName": "Kwania",
      "centroidLat": 1.900553,
      "centroidLng": 32.774199,
      "areaSqKm": 1407.971873
    },
    {
      "name": "Lamwo",
      "pcode": "UG308201",
      "parentPcode": "UG3082",
      "parentName": "Lamwo",
      "centroidLat": 3.521192,
      "centroidLng": 32.622808,
      "areaSqKm": 5444.463468
    },
    {
      "name": "Erute",
      "pcode": "UG308301",
      "parentPcode": "UG3083",
      "parentName": "Lira",
      "centroidLat": 2.332033,
      "centroidLng": 32.950148,
      "areaSqKm": 1287.352959
    },
    {
      "name": "Lira Municipality",
      "pcode": "UG308302",
      "parentPcode": "UG3083",
      "parentName": "Lira",
      "centroidLat": 2.248923,
      "centroidLng": 32.897234,
      "areaSqKm": 34.945022
    },
    {
      "name": "Madi Okollo",
      "pcode": "UG308401",
      "parentPcode": "UG3084",
      "parentName": "Madi Okollo",
      "centroidLat": 2.866923,
      "centroidLng": 31.238352,
      "areaSqKm": 2019.005788
    },
    {
      "name": "Maracha",
      "pcode": "UG308501",
      "parentPcode": "UG3085",
      "parentName": "Maracha",
      "centroidLat": 3.243662,
      "centroidLng": 30.926131,
      "areaSqKm": 439.118357
    },
    {
      "name": "Matheniko",
      "pcode": "UG308601",
      "parentPcode": "UG3086",
      "parentName": "Moroto",
      "centroidLat": 2.613397,
      "centroidLng": 34.640758,
      "areaSqKm": 3537.52166
    },
    {
      "name": "Moroto Municipality",
      "pcode": "UG308602",
      "parentPcode": "UG3086",
      "parentName": "Moroto",
      "centroidLat": 2.529665,
      "centroidLng": 34.660301,
      "areaSqKm": 4.870274
    },
    {
      "name": "Moyo",
      "pcode": "UG308701",
      "parentPcode": "UG3087",
      "parentName": "Moyo",
      "centroidLat": 3.665309,
      "centroidLng": 31.74658,
      "areaSqKm": 1041.053805
    },
    {
      "name": "Pian",
      "pcode": "UG308801",
      "parentPcode": "UG3088",
      "parentName": "Nabilatuk",
      "centroidLat": 2.038124,
      "centroidLng": 34.585665,
      "areaSqKm": 1804.642509
    },
    {
      "name": "Chekwi",
      "pcode": "UG308901",
      "parentPcode": "UG3089",
      "parentName": "Nakapiripirit",
      "centroidLat": 1.84709,
      "centroidLng": 34.638762,
      "areaSqKm": 2378.813006
    },
    {
      "name": "Bokora",
      "pcode": "UG309001",
      "parentPcode": "UG3090",
      "parentName": "Napak",
      "centroidLat": 2.394985,
      "centroidLng": 34.260424,
      "areaSqKm": 4477.241607
    },
    {
      "name": "Nebbi Municipality",
      "pcode": "UG309101",
      "parentPcode": "UG3091",
      "parentName": "Nebbi",
      "centroidLat": 2.477373,
      "centroidLng": 31.085336,
      "areaSqKm": 54.057516
    },
    {
      "name": "Padyere",
      "pcode": "UG309102",
      "parentPcode": "UG3091",
      "parentName": "Nebbi",
      "centroidLat": 2.432792,
      "centroidLng": 31.191328,
      "areaSqKm": 940.146645
    },
    {
      "name": "Nwoya",
      "pcode": "UG309201",
      "parentPcode": "UG3092",
      "parentName": "Nwoya",
      "centroidLat": 2.525748,
      "centroidLng": 31.871545,
      "areaSqKm": 4736.80548
    },
    {
      "name": "Obongi",
      "pcode": "UG309301",
      "parentPcode": "UG3093",
      "parentName": "Obongi",
      "centroidLat": 3.363664,
      "centroidLng": 31.537178,
      "areaSqKm": 847.059126
    },
    {
      "name": "Omoro",
      "pcode": "UG309401",
      "parentPcode": "UG3094",
      "parentName": "Omoro",
      "centroidLat": 2.644603,
      "centroidLng": 32.49839,
      "areaSqKm": 1555.923741
    },
    {
      "name": "Otuke",
      "pcode": "UG309501",
      "parentPcode": "UG3095",
      "parentName": "Otuke",
      "centroidLat": 2.476273,
      "centroidLng": 33.382707,
      "areaSqKm": 1649.949884
    },
    {
      "name": "Oyam",
      "pcode": "UG309601",
      "parentPcode": "UG3096",
      "parentName": "Oyam",
      "centroidLat": 2.346114,
      "centroidLng": 32.424083,
      "areaSqKm": 2252.67163
    },
    {
      "name": "Aruu",
      "pcode": "UG309701",
      "parentPcode": "UG3097",
      "parentName": "Pader",
      "centroidLat": 2.886514,
      "centroidLng": 32.913038,
      "areaSqKm": 3301.635343
    },
    {
      "name": "Jonam",
      "pcode": "UG309801",
      "parentPcode": "UG3098",
      "parentName": "Pakwach",
      "centroidLat": 2.464871,
      "centroidLng": 31.395542,
      "areaSqKm": 1038.53992
    },
    {
      "name": "Aringa",
      "pcode": "UG309901",
      "parentPcode": "UG3099",
      "parentName": "Yumbe",
      "centroidLat": 3.488343,
      "centroidLng": 31.284955,
      "areaSqKm": 2327.639972
    },
    {
      "name": "Okoro",
      "pcode": "UG310001",
      "parentPcode": "UG3100",
      "parentName": "Zombo",
      "centroidLat": 2.52029,
      "centroidLng": 30.875314,
      "areaSqKm": 890.465998
    },
    {
      "name": "Buhweju",
      "pcode": "UG410101",
      "parentPcode": "UG4101",
      "parentName": "Buhweju",
      "centroidLat": -0.323024,
      "centroidLng": 30.348089,
      "areaSqKm": 687.129236
    },
    {
      "name": "Buliisa",
      "pcode": "UG410201",
      "parentPcode": "UG4102",
      "parentName": "Buliisa",
      "centroidLat": 1.974013,
      "centroidLng": 31.383133,
      "areaSqKm": 2027.113079
    },
    {
      "name": "Bughendera",
      "pcode": "UG410301",
      "parentPcode": "UG4103",
      "parentName": "Bundibugyo",
      "centroidLat": 0.6474,
      "centroidLng": 30.083842,
      "areaSqKm": 572.254955
    },
    {
      "name": "Bwamba",
      "pcode": "UG410302",
      "parentPcode": "UG4103",
      "parentName": "Bundibugyo",
      "centroidLat": 0.739076,
      "centroidLng": 30.043108,
      "areaSqKm": 279.095713
    },
    {
      "name": "Bunyangabu",
      "pcode": "UG410401",
      "parentPcode": "UG4104",
      "parentName": "Bunyangabu",
      "centroidLat": 0.479797,
      "centroidLng": 30.201779,
      "areaSqKm": 498.257883
    },
    {
      "name": "Bushenyi Municipality",
      "pcode": "UG410501",
      "parentPcode": "UG4105",
      "parentName": "Bushenyi",
      "centroidLat": -0.539805,
      "centroidLng": 30.176182,
      "areaSqKm": 90.171356
    },
    {
      "name": "Igara",
      "pcode": "UG410502",
      "parentPcode": "UG4105",
      "parentName": "Bushenyi",
      "centroidLat": -0.475423,
      "centroidLng": 30.171007,
      "areaSqKm": 814.949002
    },
    {
      "name": "Bugahya",
      "pcode": "UG410601",
      "parentPcode": "UG4106",
      "parentName": "Hoima",
      "centroidLat": 1.563806,
      "centroidLng": 31.149457,
      "areaSqKm": 2419.893976
    },
    {
      "name": "Hoima Municipality",
      "pcode": "UG410602",
      "parentPcode": "UG4106",
      "parentName": "Hoima",
      "centroidLat": 1.435531,
      "centroidLng": 31.354947,
      "areaSqKm": 228.080178
    },
    {
      "name": "Ibanda",
      "pcode": "UG410701",
      "parentPcode": "UG4107",
      "parentName": "Ibanda",
      "centroidLat": -0.200867,
      "centroidLng": 30.411588,
      "areaSqKm": 214.150205
    },
    {
      "name": "Ibanda",
      "pcode": "UG410701",
      "parentPcode": "UG4107",
      "parentName": "Ibanda",
      "centroidLat": -0.181541,
      "centroidLng": 30.579151,
      "areaSqKm": 95.978082
    },
    {
      "name": "Ibanda",
      "pcode": "UG410701",
      "parentPcode": "UG4107",
      "parentName": "Ibanda",
      "centroidLat": 0.059013,
      "centroidLng": 30.531662,
      "areaSqKm": 307.629766
    },
    {
      "name": "Ibanda Municipality",
      "pcode": "UG410702",
      "parentPcode": "UG4107",
      "parentName": "Ibanda",
      "centroidLat": -0.109809,
      "centroidLng": 30.495817,
      "areaSqKm": 347.853804
    },
    {
      "name": "Bukanga",
      "pcode": "UG410801",
      "parentPcode": "UG4108",
      "parentName": "Isingiro",
      "centroidLat": -0.836434,
      "centroidLng": 31.049539,
      "areaSqKm": 1409.589202
    },
    {
      "name": "Isingiro",
      "pcode": "UG410802",
      "parentPcode": "UG4108",
      "parentName": "Isingiro",
      "centroidLat": -0.839468,
      "centroidLng": 30.724479,
      "areaSqKm": 1238.773279
    },
    {
      "name": "Kabale Municipality",
      "pcode": "UG410901",
      "parentPcode": "UG4109",
      "parentName": "Kabale",
      "centroidLat": -1.266956,
      "centroidLng": 29.98933,
      "areaSqKm": 31.542993
    },
    {
      "name": "Ndorwa",
      "pcode": "UG410902",
      "parentPcode": "UG4109",
      "parentName": "Kabale",
      "centroidLat": -1.335967,
      "centroidLng": 30.036572,
      "areaSqKm": 588.3926
    },
    {
      "name": "Burahya",
      "pcode": "UG411001",
      "parentPcode": "UG4110",
      "parentName": "Kabarole",
      "centroidLat": 0.621266,
      "centroidLng": 30.187813,
      "areaSqKm": 1271.742426
    },
    {
      "name": "Fort Portal Municipality",
      "pcode": "UG411002",
      "parentPcode": "UG4110",
      "parentName": "Kabarole",
      "centroidLat": 0.653902,
      "centroidLng": 30.285473,
      "areaSqKm": 39.866865
    },
    {
      "name": "Buyaga",
      "pcode": "UG411101",
      "parentPcode": "UG4111",
      "parentName": "Kagadi",
      "centroidLat": 1.0199,
      "centroidLng": 30.832249,
      "areaSqKm": 1554.242737
    },
    {
      "name": "Bugangaizi",
      "pcode": "UG411201",
      "parentPcode": "UG4112",
      "parentName": "Kakumiro",
      "centroidLat": 0.960649,
      "centroidLng": 31.290789,
      "areaSqKm": 1667.346299
    },
    {
      "name": "Kibale",
      "pcode": "UG411301",
      "parentPcode": "UG4113",
      "parentName": "Kamwenge",
      "centroidLat": 0.334436,
      "centroidLng": 30.613537,
      "areaSqKm": 1692.781979
    },
    {
      "name": "Kinkizi",
      "pcode": "UG411401",
      "parentPcode": "UG4114",
      "parentName": "Kanungu",
      "centroidLat": -0.707688,
      "centroidLng": 29.714074,
      "areaSqKm": 1325.297175
    },
    {
      "name": "Bukonjo",
      "pcode": "UG411501",
      "parentPcode": "UG4115",
      "parentName": "Kasese",
      "centroidLat": 0.069528,
      "centroidLng": 29.832126,
      "areaSqKm": 951.664389
    },
    {
      "name": "Busongora",
      "pcode": "UG411502",
      "parentPcode": "UG4115",
      "parentName": "Kasese",
      "centroidLat": 0.135506,
      "centroidLng": 30.16598,
      "areaSqKm": 2280.172765
    },
    {
      "name": "Kasese Municipality",
      "pcode": "UG411503",
      "parentPcode": "UG4115",
      "parentName": "Kasese",
      "centroidLat": 0.217622,
      "centroidLng": 30.112049,
      "areaSqKm": 155.599627
    },
    {
      "name": "Kazo",
      "pcode": "UG411601",
      "parentPcode": "UG4116",
      "parentName": "Kazo",
      "centroidLat": 0.023641,
      "centroidLng": 30.752427,
      "areaSqKm": 1556.252855
    },
    {
      "name": "Buyanja",
      "pcode": "UG411701",
      "parentPcode": "UG4117",
      "parentName": "Kibaale",
      "centroidLat": 0.820976,
      "centroidLng": 31.026655,
      "areaSqKm": 1164.911124
    },
    {
      "name": "Buhaguzi",
      "pcode": "UG411801",
      "parentPcode": "UG4118",
      "parentName": "Kikuube",
      "centroidLat": 1.308385,
      "centroidLng": 31.00109,
      "areaSqKm": 2990.580552
    },
    {
      "name": "Nyabushozi",
      "pcode": "UG411901",
      "parentPcode": "UG4119",
      "parentName": "Kiruhura",
      "centroidLat": -0.326982,
      "centroidLng": 30.873089,
      "areaSqKm": 3043.415929
    },
    {
      "name": "Kibanda",
      "pcode": "UG412001",
      "parentPcode": "UG4120",
      "parentName": "Kiryandongo",
      "centroidLat": 1.991014,
      "centroidLng": 32.050567,
      "areaSqKm": 3633.97234
    },
    {
      "name": "Bufumbira",
      "pcode": "UG412101",
      "parentPcode": "UG4121",
      "parentName": "Kisoro",
      "centroidLat": -1.197863,
      "centroidLng": 29.668534,
      "areaSqKm": 715.687821
    },
    {
      "name": "Kisoro Municipality",
      "pcode": "UG412102",
      "parentPcode": "UG4121",
      "parentName": "Kisoro",
      "centroidLat": -1.276968,
      "centroidLng": 29.69075,
      "areaSqKm": 10.283311
    },
    {
      "name": "Kitagwenda",
      "pcode": "UG412201",
      "parentPcode": "UG4122",
      "parentName": "Kitagwenda",
      "centroidLat": 0.013776,
      "centroidLng": 30.324288,
      "areaSqKm": 715.583582
    },
    {
      "name": "Kyaka",
      "pcode": "UG412301",
      "parentPcode": "UG4123",
      "parentName": "Kyegegwa",
      "centroidLat": 0.478219,
      "centroidLng": 31.000576,
      "areaSqKm": 1746.279658
    },
    {
      "name": "Mwenge",
      "pcode": "UG412401",
      "parentPcode": "UG4124",
      "parentName": "Kyenjojo",
      "centroidLat": 0.642676,
      "centroidLng": 30.658676,
      "areaSqKm": 2345.927476
    },
    {
      "name": "Bujenje",
      "pcode": "UG412501",
      "parentPcode": "UG4125",
      "parentName": "Masindi",
      "centroidLat": 1.519807,
      "centroidLng": 31.592208,
      "areaSqKm": 818.013044
    },
    {
      "name": "Bujenje",
      "pcode": "UG412501",
      "parentPcode": "UG4125",
      "parentName": "Masindi",
      "centroidLat": 2.01385,
      "centroidLng": 31.64655,
      "areaSqKm": 1618.27348
    },
    {
      "name": "Buruuli",
      "pcode": "UG412502",
      "parentPcode": "UG4125",
      "parentName": "Masindi",
      "centroidLat": 1.550688,
      "centroidLng": 31.876095,
      "areaSqKm": 1126.381639
    },
    {
      "name": "Masindi Municipality",
      "pcode": "UG412503",
      "parentPcode": "UG4125",
      "parentName": "Masindi",
      "centroidLat": 1.678393,
      "centroidLng": 31.702616,
      "areaSqKm": 360.167876
    },
    {
      "name": "Kashari",
      "pcode": "UG412601",
      "parentPcode": "UG4126",
      "parentName": "Mbarara",
      "centroidLat": -0.487474,
      "centroidLng": 30.627567,
      "areaSqKm": 1195.396347
    },
    {
      "name": "Mbarara Municipality",
      "pcode": "UG412602",
      "parentPcode": "UG4126",
      "parentName": "Mbarara",
      "centroidLat": -0.612124,
      "centroidLng": 30.658465,
      "areaSqKm": 46.198007
    },
    {
      "name": "Ruhinda",
      "pcode": "UG412701",
      "parentPcode": "UG4127",
      "parentName": "Mitooma",
      "centroidLat": -0.609149,
      "centroidLng": 30.007755,
      "areaSqKm": 544.027456
    },
    {
      "name": "Ntoroko",
      "pcode": "UG412801",
      "parentPcode": "UG4128",
      "parentName": "Ntoroko",
      "centroidLat": 0.989963,
      "centroidLng": 30.387189,
      "areaSqKm": 1402.372167
    },
    {
      "name": "Kajara",
      "pcode": "UG412901",
      "parentPcode": "UG4129",
      "parentName": "Ntungamo",
      "centroidLat": -0.831123,
      "centroidLng": 30.129648,
      "areaSqKm": 314.050378
    },
    {
      "name": "Ntungamo Municipality",
      "pcode": "UG412902",
      "parentPcode": "UG4129",
      "parentName": "Ntungamo",
      "centroidLat": -0.872791,
      "centroidLng": 30.273986,
      "areaSqKm": 50.86
    },
    {
      "name": "Ruhaama",
      "pcode": "UG412903",
      "parentPcode": "UG4129",
      "parentName": "Ntungamo",
      "centroidLat": -0.893161,
      "centroidLng": 30.448075,
      "areaSqKm": 981.76973
    },
    {
      "name": "Rushenyi",
      "pcode": "UG412904",
      "parentPcode": "UG4129",
      "parentName": "Ntungamo",
      "centroidLat": -1.039636,
      "centroidLng": 30.168627,
      "areaSqKm": 675.682879
    },
    {
      "name": "Rubanda",
      "pcode": "UG413001",
      "parentPcode": "UG4130",
      "parentName": "Rubanda",
      "centroidLat": -1.174519,
      "centroidLng": 29.900119,
      "areaSqKm": 689.845705
    },
    {
      "name": "Bunyaruguru",
      "pcode": "UG413101",
      "parentPcode": "UG4131",
      "parentName": "Rubirizi",
      "centroidLat": -0.26144,
      "centroidLng": 29.951702,
      "areaSqKm": 1469.209222
    },
    {
      "name": "Rukiga",
      "pcode": "UG413201",
      "parentPcode": "UG4132",
      "parentName": "Rukiga",
      "centroidLat": -1.146832,
      "centroidLng": 30.054593,
      "areaSqKm": 427.117547
    },
    {
      "name": "Bujumbura",
      "pcode": "UG413301",
      "parentPcode": "UG4133",
      "parentName": "Rukungiri",
      "centroidLat": -0.611419,
      "centroidLng": 29.811695,
      "areaSqKm": 969.616365
    },
    {
      "name": "Rubabo",
      "pcode": "UG413302",
      "parentPcode": "UG4133",
      "parentName": "Rukungiri",
      "centroidLat": -0.917914,
      "centroidLng": 29.949414,
      "areaSqKm": 494.137775
    },
    {
      "name": "Rukungiri Municipality",
      "pcode": "UG413303",
      "parentPcode": "UG4133",
      "parentName": "Rukungiri",
      "centroidLat": -0.790287,
      "centroidLng": 29.940422,
      "areaSqKm": 65.503553
    },
    {
      "name": "Rwampara",
      "pcode": "UG413401",
      "parentPcode": "UG4134",
      "parentName": "Rwampara",
      "centroidLat": -0.734864,
      "centroidLng": 30.460781,
      "areaSqKm": 574.681602
    },
    {
      "name": "Sheema",
      "pcode": "UG413501",
      "parentPcode": "UG4135",
      "parentName": "Sheema",
      "centroidLat": -0.691434,
      "centroidLng": 30.250988,
      "areaSqKm": 269.825002
    },
    {
      "name": "Sheema",
      "pcode": "UG413501",
      "parentPcode": "UG4135",
      "parentName": "Sheema",
      "centroidLat": -0.487342,
      "centroidLng": 30.388566,
      "areaSqKm": 181.828362
    },
    {
      "name": "Sheema Municipality",
      "pcode": "UG413502",
      "parentPcode": "UG4135",
      "parentName": "Sheema",
      "centroidLat": -0.603844,
      "centroidLng": 30.370424,
      "areaSqKm": 247.43013
    }
  ],
  "subCounties": [
    {
      "name": "Buikwe",
      "pcode": "UG10010101",
      "parentPcode": "UG100101",
      "parentName": "Buikwe",
      "centroidLat": 0.293666,
      "centroidLng": 33.002758,
      "areaSqKm": 61.986319
    },
    {
      "name": "Buikwe Town Council",
      "pcode": "UG10010102",
      "parentPcode": "UG100101",
      "parentName": "Buikwe",
      "centroidLat": 0.336279,
      "centroidLng": 33.039989,
      "areaSqKm": 29.06146
    },
    {
      "name": "Najja",
      "pcode": "UG10010103",
      "parentPcode": "UG100101",
      "parentName": "Buikwe",
      "centroidLat": 0.264181,
      "centroidLng": 33.119493,
      "areaSqKm": 166.469055
    },
    {
      "name": "Ngogwe",
      "pcode": "UG10010104",
      "parentPcode": "UG100101",
      "parentName": "Buikwe",
      "centroidLat": 0.211127,
      "centroidLng": 32.998581,
      "areaSqKm": 209.879031
    },
    {
      "name": "Nkokonjeru Town Council",
      "pcode": "UG10010105",
      "parentPcode": "UG100101",
      "parentName": "Buikwe",
      "centroidLat": 0.242214,
      "centroidLng": 32.920345,
      "areaSqKm": 14.776423
    },
    {
      "name": "Ssi-Bukunja",
      "pcode": "UG10010106",
      "parentPcode": "UG100101",
      "parentName": "Buikwe",
      "centroidLat": 0.128664,
      "centroidLng": 32.967512,
      "areaSqKm": 249.987811
    },
    {
      "name": "Central Division",
      "pcode": "UG10010201",
      "parentPcode": "UG100102",
      "parentName": "KCCA",
      "centroidLat": 0.382839,
      "centroidLng": 32.932928,
      "areaSqKm": 18.35386
    },
    {
      "name": "Kawolo Division",
      "pcode": "UG10010301",
      "parentPcode": "UG100103",
      "parentName": "Lugazi Municipality",
      "centroidLat": 0.338317,
      "centroidLng": 32.931643,
      "areaSqKm": 126.628503
    },
    {
      "name": "Najjembe Division",
      "pcode": "UG10010302",
      "parentPcode": "UG100103",
      "parentName": "Lugazi Municipality",
      "centroidLat": 0.408735,
      "centroidLng": 33.05093,
      "areaSqKm": 188.292119
    },
    {
      "name": "Njeru Division",
      "pcode": "UG10010401",
      "parentPcode": "UG100104",
      "parentName": "Njeru Municipality",
      "centroidLat": 0.42397,
      "centroidLng": 33.163301,
      "areaSqKm": 47.23182
    },
    {
      "name": "Nyenga Division",
      "pcode": "UG10010402",
      "parentPcode": "UG100104",
      "parentName": "Njeru Municipality",
      "centroidLat": 0.359729,
      "centroidLng": 33.198085,
      "areaSqKm": 163.942773
    },
    {
      "name": "Wakisi Division",
      "pcode": "UG10010403",
      "parentPcode": "UG100104",
      "parentName": "Njeru Municipality",
      "centroidLat": 0.484518,
      "centroidLng": 33.054424,
      "areaSqKm": 176.587582
    },
    {
      "name": "Bigasa",
      "pcode": "UG10020101",
      "parentPcode": "UG100201",
      "parentName": "Bukomansimbi",
      "centroidLat": -0.044595,
      "centroidLng": 31.653815,
      "areaSqKm": 187.870285
    },
    {
      "name": "Bukomansimbi Town Council",
      "pcode": "UG10020102",
      "parentPcode": "UG100201",
      "parentName": "Bukomansimbi",
      "centroidLat": -0.164154,
      "centroidLng": 31.617728,
      "areaSqKm": 24.095767
    },
    {
      "name": "Butenga",
      "pcode": "UG10020103",
      "parentPcode": "UG100201",
      "parentName": "Bukomansimbi",
      "centroidLat": -0.197686,
      "centroidLng": 31.629987,
      "areaSqKm": 146.715913
    },
    {
      "name": "Kibinge",
      "pcode": "UG10020104",
      "parentPcode": "UG100201",
      "parentName": "Bukomansimbi",
      "centroidLat": -0.251875,
      "centroidLng": 31.627256,
      "areaSqKm": 102.467747
    },
    {
      "name": "Kitanda",
      "pcode": "UG10020105",
      "parentPcode": "UG100201",
      "parentName": "Bukomansimbi",
      "centroidLat": -0.074892,
      "centroidLng": 31.5809,
      "areaSqKm": 138.687573
    },
    {
      "name": "Budde",
      "pcode": "UG10030101",
      "parentPcode": "UG100301",
      "parentName": "Butambala",
      "centroidLat": 0.142511,
      "centroidLng": 32.174824,
      "areaSqKm": 58.233929
    },
    {
      "name": "Bulo",
      "pcode": "UG10030102",
      "parentPcode": "UG100301",
      "parentName": "Butambala",
      "centroidLat": 0.117577,
      "centroidLng": 32.02028,
      "areaSqKm": 66.688866
    },
    {
      "name": "Gombe Town Council",
      "pcode": "UG10030103",
      "parentPcode": "UG100301",
      "parentName": "Butambala",
      "centroidLat": 0.170757,
      "centroidLng": 32.1116,
      "areaSqKm": 49.831346
    },
    {
      "name": "Kalamba",
      "pcode": "UG10030104",
      "parentPcode": "UG100301",
      "parentName": "Butambala",
      "centroidLat": 0.253682,
      "centroidLng": 32.235382,
      "areaSqKm": 82.874335
    },
    {
      "name": "Kibibi",
      "pcode": "UG10030105",
      "parentPcode": "UG100301",
      "parentName": "Butambala",
      "centroidLat": 0.225887,
      "centroidLng": 32.155031,
      "areaSqKm": 38.811069
    },
    {
      "name": "Ngando",
      "pcode": "UG10030106",
      "parentPcode": "UG100301",
      "parentName": "Butambala",
      "centroidLat": 0.064444,
      "centroidLng": 31.888992,
      "areaSqKm": 109.161814
    },
    {
      "name": "Bugaya",
      "pcode": "UG10040101",
      "parentPcode": "UG100401",
      "parentName": "Buvuma Island",
      "centroidLat": -0.697459,
      "centroidLng": 33.32445,
      "areaSqKm": 1202.88882
    },
    {
      "name": "Busamuzi",
      "pcode": "UG10040102",
      "parentPcode": "UG100401",
      "parentName": "Buvuma Island",
      "centroidLat": 0.291373,
      "centroidLng": 33.255539,
      "areaSqKm": 143.077611
    },
    {
      "name": "Buvuma Town Council",
      "pcode": "UG10040103",
      "parentPcode": "UG100401",
      "parentName": "Buvuma Island",
      "centroidLat": 0.183107,
      "centroidLng": 33.239066,
      "areaSqKm": 136.400404
    },
    {
      "name": "Buwooya",
      "pcode": "UG10040104",
      "parentPcode": "UG100401",
      "parentName": "Buvuma Island",
      "centroidLat": 0.276803,
      "centroidLng": 33.364718,
      "areaSqKm": 72.900611
    },
    {
      "name": "Bweema",
      "pcode": "UG10040105",
      "parentPcode": "UG100401",
      "parentName": "Buvuma Island",
      "centroidLat": 0.143363,
      "centroidLng": 33.144712,
      "areaSqKm": 224.075452
    },
    {
      "name": "Lubya",
      "pcode": "UG10040106",
      "parentPcode": "UG100401",
      "parentName": "Buvuma Island",
      "centroidLat": -0.386088,
      "centroidLng": 33.442169,
      "areaSqKm": 2318.675963
    },
    {
      "name": "Lwajje",
      "pcode": "UG10040107",
      "parentPcode": "UG100401",
      "parentName": "Buvuma Island",
      "centroidLat": -0.439411,
      "centroidLng": 32.951526,
      "areaSqKm": 2259.568085
    },
    {
      "name": "Lyabaana",
      "pcode": "UG10040108",
      "parentPcode": "UG100401",
      "parentName": "Buvuma Island",
      "centroidLat": -0.698247,
      "centroidLng": 33.15655,
      "areaSqKm": 3006.494681
    },
    {
      "name": "Nairambi",
      "pcode": "UG10040109",
      "parentPcode": "UG100401",
      "parentName": "Buvuma Island",
      "centroidLat": 0.16088,
      "centroidLng": 33.305996,
      "areaSqKm": 255.470239
    },
    {
      "name": "Kabulasoke",
      "pcode": "UG10050101",
      "parentPcode": "UG100501",
      "parentName": "Gomba",
      "centroidLat": 0.155402,
      "centroidLng": 31.805204,
      "areaSqKm": 443.142939
    },
    {
      "name": "Kanoni Town Council",
      "pcode": "UG10050102",
      "parentPcode": "UG100501",
      "parentName": "Gomba",
      "centroidLat": 0.173079,
      "centroidLng": 31.896728,
      "areaSqKm": 59.277131
    },
    {
      "name": "Kyegonza",
      "pcode": "UG10050103",
      "parentPcode": "UG100501",
      "parentName": "Gomba",
      "centroidLat": 0.221048,
      "centroidLng": 31.857141,
      "areaSqKm": 173.923693
    },
    {
      "name": "Maddu",
      "pcode": "UG10050104",
      "parentPcode": "UG100501",
      "parentName": "Gomba",
      "centroidLat": 0.220686,
      "centroidLng": 31.520945,
      "areaSqKm": 807.544979
    },
    {
      "name": "Mpenja",
      "pcode": "UG10050105",
      "parentPcode": "UG100501",
      "parentName": "Gomba",
      "centroidLat": 0.214028,
      "centroidLng": 32.041914,
      "areaSqKm": 186.679074
    },
    {
      "name": "Bujumba",
      "pcode": "UG10060101",
      "parentPcode": "UG100601",
      "parentName": "Bujumba",
      "centroidLat": -0.434398,
      "centroidLng": 32.211659,
      "areaSqKm": 498.98
    },
    {
      "name": "Kalangala Town Council",
      "pcode": "UG10060102",
      "parentPcode": "UG100601",
      "parentName": "Bujumba",
      "centroidLat": -0.312315,
      "centroidLng": 32.306331,
      "areaSqKm": 61.049178
    },
    {
      "name": "Mugoye",
      "pcode": "UG10060103",
      "parentPcode": "UG100601",
      "parentName": "Bujumba",
      "centroidLat": -0.30024,
      "centroidLng": 32.165186,
      "areaSqKm": 710.57446
    },
    {
      "name": "Bubeke",
      "pcode": "UG10060201",
      "parentPcode": "UG100602",
      "parentName": "Kyamuswa",
      "centroidLat": -0.324363,
      "centroidLng": 32.708923,
      "areaSqKm": 1209.772179
    },
    {
      "name": "Bufumira",
      "pcode": "UG10060202",
      "parentPcode": "UG100602",
      "parentName": "Kyamuswa",
      "centroidLat": -0.309977,
      "centroidLng": 32.422426,
      "areaSqKm": 626.793942
    },
    {
      "name": "Kyamuswa",
      "pcode": "UG10060203",
      "parentPcode": "UG100602",
      "parentName": "Kyamuswa",
      "centroidLat": -0.655746,
      "centroidLng": 32.638864,
      "areaSqKm": 3457.346173
    },
    {
      "name": "Mazinga",
      "pcode": "UG10060204",
      "parentPcode": "UG100602",
      "parentName": "Kyamuswa",
      "centroidLat": -0.713513,
      "centroidLng": 32.201477,
      "areaSqKm": 2486.691122
    },
    {
      "name": "Bukulula",
      "pcode": "UG10070101",
      "parentPcode": "UG100701",
      "parentName": "Kalungu",
      "centroidLat": -0.140111,
      "centroidLng": 31.821313,
      "areaSqKm": 252.497877
    },
    {
      "name": "Kalungu",
      "pcode": "UG10070102",
      "parentPcode": "UG100701",
      "parentName": "Kalungu",
      "centroidLat": -0.188613,
      "centroidLng": 31.726586,
      "areaSqKm": 143.026833
    },
    {
      "name": "Kalungu Town Council",
      "pcode": "UG10070103",
      "parentPcode": "UG100701",
      "parentName": "Kalungu",
      "centroidLat": -0.164021,
      "centroidLng": 31.757602,
      "areaSqKm": 25.76365
    },
    {
      "name": "Kyamulibwa",
      "pcode": "UG10070104",
      "parentPcode": "UG100701",
      "parentName": "Kalungu",
      "centroidLat": -0.079989,
      "centroidLng": 31.802074,
      "areaSqKm": 104.32373
    },
    {
      "name": "Kyamulibwa Town Council",
      "pcode": "UG10070105",
      "parentPcode": "UG100701",
      "parentName": "Kalungu",
      "centroidLat": -0.073585,
      "centroidLng": 31.748311,
      "areaSqKm": 10.551592
    },
    {
      "name": "Lukaya Town Council",
      "pcode": "UG10070106",
      "parentPcode": "UG100701",
      "parentName": "Kalungu",
      "centroidLat": -0.133256,
      "centroidLng": 31.901293,
      "areaSqKm": 54.796007
    },
    {
      "name": "Lwabenge",
      "pcode": "UG10070107",
      "parentPcode": "UG100701",
      "parentName": "Kalungu",
      "centroidLat": 0.003263,
      "centroidLng": 31.776961,
      "areaSqKm": 246.225904
    },
    {
      "name": "Central Division",
      "pcode": "UG10080101",
      "parentPcode": "UG100801",
      "parentName": "KCCA",
      "centroidLat": 0.324645,
      "centroidLng": 32.583818,
      "areaSqKm": 15.103639
    },
    {
      "name": "Kawempe Division",
      "pcode": "UG10080102",
      "parentPcode": "UG100801",
      "parentName": "KCCA",
      "centroidLat": 0.365491,
      "centroidLng": 32.578884,
      "areaSqKm": 30.845858
    },
    {
      "name": "Makindye Division",
      "pcode": "UG10080103",
      "parentPcode": "UG100801",
      "parentName": "KCCA",
      "centroidLat": 0.265253,
      "centroidLng": 32.624107,
      "areaSqKm": 55.09465
    },
    {
      "name": "Nakawa Division",
      "pcode": "UG10080104",
      "parentPcode": "UG100801",
      "parentName": "KCCA",
      "centroidLat": 0.334536,
      "centroidLng": 32.622637,
      "areaSqKm": 56.733566
    },
    {
      "name": "Rubaga Division",
      "pcode": "UG10080105",
      "parentPcode": "UG100801",
      "parentName": "KCCA",
      "centroidLat": 0.31012,
      "centroidLng": 32.537987,
      "areaSqKm": 37.508053
    },
    {
      "name": "Bukuya",
      "pcode": "UG10090101",
      "parentPcode": "UG100901",
      "parentName": "Kassanda",
      "centroidLat": 0.661961,
      "centroidLng": 31.857013,
      "areaSqKm": 177.535699
    },
    {
      "name": "Kalwana",
      "pcode": "UG10090102",
      "parentPcode": "UG100901",
      "parentName": "Kassanda",
      "centroidLat": 0.572792,
      "centroidLng": 31.653001,
      "areaSqKm": 178.205288
    },
    {
      "name": "Kassanda",
      "pcode": "UG10090103",
      "parentPcode": "UG100901",
      "parentName": "Kassanda",
      "centroidLat": 0.550126,
      "centroidLng": 31.875388,
      "areaSqKm": 155.054901
    },
    {
      "name": "Kassanda Town Council",
      "pcode": "UG10090104",
      "parentPcode": "UG100901",
      "parentName": "Kassanda",
      "centroidLat": 0.548746,
      "centroidLng": 31.807287,
      "areaSqKm": 65.61617
    },
    {
      "name": "Kiganda",
      "pcode": "UG10090105",
      "parentPcode": "UG100901",
      "parentName": "Kassanda",
      "centroidLat": 0.433518,
      "centroidLng": 31.68043,
      "areaSqKm": 227.435533
    },
    {
      "name": "Kitumbi",
      "pcode": "UG10090106",
      "parentPcode": "UG100901",
      "parentName": "Kassanda",
      "centroidLat": 0.702989,
      "centroidLng": 31.675909,
      "areaSqKm": 433.076386
    },
    {
      "name": "Makokoto",
      "pcode": "UG10090107",
      "parentPcode": "UG100901",
      "parentName": "Kassanda",
      "centroidLat": 0.741383,
      "centroidLng": 31.856382,
      "areaSqKm": 71.536523
    },
    {
      "name": "Manyogaseka",
      "pcode": "UG10090108",
      "parentPcode": "UG100901",
      "parentName": "Kassanda",
      "centroidLat": 0.31683,
      "centroidLng": 31.726524,
      "areaSqKm": 225.341236
    },
    {
      "name": "Myanzi",
      "pcode": "UG10090109",
      "parentPcode": "UG100901",
      "parentName": "Kassanda",
      "centroidLat": 0.440349,
      "centroidLng": 31.906252,
      "areaSqKm": 177.481183
    },
    {
      "name": "Nalutuntu",
      "pcode": "UG10090110",
      "parentPcode": "UG100901",
      "parentName": "Kassanda",
      "centroidLat": 0.413563,
      "centroidLng": 31.800357,
      "areaSqKm": 207.37569
    },
    {
      "name": "Bbaale",
      "pcode": "UG10100101",
      "parentPcode": "UG101001",
      "parentName": "Bbaale",
      "centroidLat": 1.12611,
      "centroidLng": 32.879138,
      "areaSqKm": 314.700182
    },
    {
      "name": "Galiraya",
      "pcode": "UG10100102",
      "parentPcode": "UG101001",
      "parentName": "Bbaale",
      "centroidLat": 1.325027,
      "centroidLng": 32.817889,
      "areaSqKm": 419.569154
    },
    {
      "name": "Kayonza",
      "pcode": "UG10100103",
      "parentPcode": "UG101001",
      "parentName": "Bbaale",
      "centroidLat": 0.944542,
      "centroidLng": 32.848054,
      "areaSqKm": 315.521549
    },
    {
      "name": "Kitimbwa",
      "pcode": "UG10100104",
      "parentPcode": "UG101001",
      "parentName": "Bbaale",
      "centroidLat": 0.865329,
      "centroidLng": 32.934892,
      "areaSqKm": 201.666737
    },
    {
      "name": "Busaana",
      "pcode": "UG10100201",
      "parentPcode": "UG101002",
      "parentName": "Ntenjeru",
      "centroidLat": 0.788431,
      "centroidLng": 32.988981,
      "areaSqKm": 138.856304
    },
    {
      "name": "Kangulumira",
      "pcode": "UG10100202",
      "parentPcode": "UG101002",
      "parentName": "Ntenjeru",
      "centroidLat": 0.572674,
      "centroidLng": 33.025713,
      "areaSqKm": 109.824218
    },
    {
      "name": "Kayunga",
      "pcode": "UG10100203",
      "parentPcode": "UG101002",
      "parentName": "Ntenjeru",
      "centroidLat": 0.722057,
      "centroidLng": 32.943399,
      "areaSqKm": 137.443854
    },
    {
      "name": "Kayunga Town Council",
      "pcode": "UG10100204",
      "parentPcode": "UG101002",
      "parentName": "Ntenjeru",
      "centroidLat": 0.705838,
      "centroidLng": 32.895847,
      "areaSqKm": 31.429181
    },
    {
      "name": "Nazigo",
      "pcode": "UG10100205",
      "parentPcode": "UG101002",
      "parentName": "Ntenjeru",
      "centroidLat": 0.676071,
      "centroidLng": 33.022918,
      "areaSqKm": 110.00366
    },
    {
      "name": "Bukomero",
      "pcode": "UG10110101",
      "parentPcode": "UG101101",
      "parentName": "Kiboga",
      "centroidLat": 0.698873,
      "centroidLng": 32.124687,
      "areaSqKm": 142.584068
    },
    {
      "name": "Bukomero Town Council",
      "pcode": "UG10110102",
      "parentPcode": "UG101101",
      "parentName": "Kiboga",
      "centroidLat": 0.686567,
      "centroidLng": 32.026508,
      "areaSqKm": 37.353276
    },
    {
      "name": "Ddwaniro",
      "pcode": "UG10110103",
      "parentPcode": "UG101101",
      "parentName": "Kiboga",
      "centroidLat": 0.836566,
      "centroidLng": 32.085083,
      "areaSqKm": 465.82371
    },
    {
      "name": "Kapeke",
      "pcode": "UG10110104",
      "parentPcode": "UG101101",
      "parentName": "Kiboga",
      "centroidLat": 0.979484,
      "centroidLng": 31.905732,
      "areaSqKm": 371.04272
    },
    {
      "name": "Kibiga",
      "pcode": "UG10110105",
      "parentPcode": "UG101101",
      "parentName": "Kiboga",
      "centroidLat": 0.837917,
      "centroidLng": 31.746542,
      "areaSqKm": 170.542624
    },
    {
      "name": "Kiboga Town Council",
      "pcode": "UG10110106",
      "parentPcode": "UG101101",
      "parentName": "Kiboga",
      "centroidLat": 0.917527,
      "centroidLng": 31.769588,
      "areaSqKm": 19.592756
    },
    {
      "name": "Lwamata",
      "pcode": "UG10110107",
      "parentPcode": "UG101101",
      "parentName": "Kiboga",
      "centroidLat": 0.836201,
      "centroidLng": 31.950138,
      "areaSqKm": 238.838682
    },
    {
      "name": "Lwamata Town Council",
      "pcode": "UG10110108",
      "parentPcode": "UG101101",
      "parentName": "Kiboga",
      "centroidLat": 0.822851,
      "centroidLng": 31.902848,
      "areaSqKm": 17.15479
    },
    {
      "name": "Muwanga",
      "pcode": "UG10110109",
      "parentPcode": "UG101101",
      "parentName": "Kiboga",
      "centroidLat": 0.696789,
      "centroidLng": 31.948986,
      "areaSqKm": 111.005049
    },
    {
      "name": "Bananywa",
      "pcode": "UG10120110",
      "parentPcode": "UG101201",
      "parentName": "Kiboga",
      "centroidLat": 1.213678,
      "centroidLng": 31.389804,
      "areaSqKm": 172.649538
    },
    {
      "name": "Banda",
      "pcode": "UG10120111",
      "parentPcode": "UG101201",
      "parentName": "Kiboga",
      "centroidLat": 1.096431,
      "centroidLng": 31.828952,
      "areaSqKm": 141.509169
    },
    {
      "name": "Butemba",
      "pcode": "UG10120112",
      "parentPcode": "UG101201",
      "parentName": "Kiboga",
      "centroidLat": 1.068678,
      "centroidLng": 31.627188,
      "areaSqKm": 146.207864
    },
    {
      "name": "Butemba Town Council",
      "pcode": "UG10120113",
      "parentPcode": "UG101201",
      "parentName": "Kiboga",
      "centroidLat": 1.174193,
      "centroidLng": 31.598958,
      "areaSqKm": 189.607232
    },
    {
      "name": "Byerima",
      "pcode": "UG10120114",
      "parentPcode": "UG101201",
      "parentName": "Kiboga",
      "centroidLat": 1.083361,
      "centroidLng": 31.506414,
      "areaSqKm": 111.669387
    },
    {
      "name": "Gayaza",
      "pcode": "UG10120115",
      "parentPcode": "UG101201",
      "parentName": "Kiboga",
      "centroidLat": 0.940031,
      "centroidLng": 31.492368,
      "areaSqKm": 154.642795
    },
    {
      "name": "Kyankwanzi",
      "pcode": "UG10120116",
      "parentPcode": "UG101201",
      "parentName": "Kiboga",
      "centroidLat": 1.198689,
      "centroidLng": 31.707403,
      "areaSqKm": 256.626933
    },
    {
      "name": "Kyankwanzi Town Council",
      "pcode": "UG10120117",
      "parentPcode": "UG101201",
      "parentName": "Kiboga",
      "centroidLat": 1.230589,
      "centroidLng": 31.81542,
      "areaSqKm": 369.939007
    },
    {
      "name": "Mulagi",
      "pcode": "UG10120118",
      "parentPcode": "UG101201",
      "parentName": "Kiboga",
      "centroidLat": 0.91937,
      "centroidLng": 31.699555,
      "areaSqKm": 67.895266
    },
    {
      "name": "Nkandwa",
      "pcode": "UG10120119",
      "parentPcode": "UG101201",
      "parentName": "Kiboga",
      "centroidLat": 0.973866,
      "centroidLng": 31.611022,
      "areaSqKm": 75.178549
    },
    {
      "name": "Nsambya",
      "pcode": "UG10120120",
      "parentPcode": "UG101201",
      "parentName": "Kiboga",
      "centroidLat": 1.239957,
      "centroidLng": 31.558514,
      "areaSqKm": 382.668447
    },
    {
      "name": "Ntwetwe",
      "pcode": "UG10120121",
      "parentPcode": "UG101201",
      "parentName": "Kiboga",
      "centroidLat": 0.875762,
      "centroidLng": 31.607687,
      "areaSqKm": 134.856869
    },
    {
      "name": "Ntwetwe Town Council",
      "pcode": "UG10120122",
      "parentPcode": "UG101201",
      "parentName": "Kiboga",
      "centroidLat": 0.947556,
      "centroidLng": 31.585781,
      "areaSqKm": 33.19369
    },
    {
      "name": "Wattuba",
      "pcode": "UG10120123",
      "parentPcode": "UG101201",
      "parentName": "Kiboga",
      "centroidLat": 1.001942,
      "centroidLng": 31.724559,
      "areaSqKm": 227.367069
    },
    {
      "name": "Kabira",
      "pcode": "UG10130101",
      "parentPcode": "UG101301",
      "parentName": "Kyotera",
      "centroidLat": -0.714702,
      "centroidLng": 31.639252,
      "areaSqKm": 499.615122
    },
    {
      "name": "Kakuuto",
      "pcode": "UG10130102",
      "parentPcode": "UG101301",
      "parentName": "Kyotera",
      "centroidLat": -0.887763,
      "centroidLng": 31.501395,
      "areaSqKm": 404.856498
    },
    {
      "name": "Kalisizo",
      "pcode": "UG10130103",
      "parentPcode": "UG101301",
      "parentName": "Kyotera",
      "centroidLat": -0.510993,
      "centroidLng": 31.640319,
      "areaSqKm": 77.643263
    },
    {
      "name": "Kalisizo Town Council",
      "pcode": "UG10130104",
      "parentPcode": "UG101301",
      "parentName": "Kyotera",
      "centroidLat": -0.532339,
      "centroidLng": 31.624945,
      "areaSqKm": 16.346499
    },
    {
      "name": "Kasaali Town Council",
      "pcode": "UG10130105",
      "parentPcode": "UG101301",
      "parentName": "Kyotera",
      "centroidLat": -0.627514,
      "centroidLng": 31.504719,
      "areaSqKm": 111.250498
    },